% program   : RTKPOST ver.2.4.3 b34
% inp file  : WUTR00POL_R_20241390000_01D_30S_MO.rnx
% inp file  : CBKA1390.24o
% inp file  : CBKA1390.24n
% obs start : 2024/05/18 00:00:00.0 GPST (week2314 518400.0s)
% obs end   : 2024/05/18 23:59:30.0 GPST (week2314 604770.0s)
% pos mode  : Kinematic
% freqs     : L1+2
% solution  : Forward
% elev mask : 15.0 deg
% dynamics  : off
% tidecorr  : off
% ionos opt : Broadcast
% tropo opt : Saastamoinen
% ephemeris : Broadcast
% navi sys  : GPS
% amb res   : Continuous
% val thres : 2.5
% antenna1  :                       ( 0.0000  0.0000  0.1010)
% antenna2  :                       ( 0.0000  0.0000  0.0000)
% ref pos   :  3654410.0348   1407752.4780   5017576.9176
%
% (x/y/z-ecef=WGS84,Q=1:fix,2:float,3:sbas,4:dgps,5:single,6:ppp,ns=# of satellites)
%  GPST                      x-ecef(m)      y-ecef(m)      z-ecef(m)   Q  ns   sdx(m)   sdy(m)   sdz(m)  sdxy(m)  sdyz(m)  sdzx(m) age(s)  ratio
2024/05/18 00:00:00.000   3655334.3694   1403901.2189   5018038.3221   2   8   1.1580   0.6265   1.2637   0.5497   0.4747   0.9638   0.00    2.2
2024/05/18 00:00:30.000   3655333.8112   1403901.0398   5018037.9883   1   8   0.0117   0.0063   0.0128   0.0056   0.0048   0.0097   0.00    2.6
2024/05/18 00:01:00.000   3655333.8139   1403901.0395   5018037.9864   1   8   0.0117   0.0063   0.0128   0.0056   0.0048   0.0097   0.00    3.6
2024/05/18 00:01:30.000   3655333.8147   1403901.0381   5018037.9881   1   8   0.0117   0.0064   0.0128   0.0056   0.0048   0.0097   0.00    4.6
2024/05/18 00:02:00.000   3655333.8134   1403901.0444   5018037.9794   1   8   0.0117   0.0063   0.0128   0.0056   0.0048   0.0097   0.00    7.1
2024/05/18 00:02:30.000   3655333.8094   1403901.0412   5018037.9807   1   8   0.0117   0.0063   0.0128   0.0057   0.0048   0.0096   0.00    7.5
2024/05/18 00:03:00.000   3655333.8199   1403901.0421   5018037.9870   1   8   0.0117   0.0063   0.0127   0.0057   0.0048   0.0096   0.00    8.5
2024/05/18 00:03:30.000   3655333.8110   1403901.0363   5018037.9877   1   8   0.0117   0.0064   0.0127   0.0057   0.0047   0.0095   0.00    8.2
2024/05/18 00:04:00.000   3655333.8195   1403901.0378   5018037.9864   1   8   0.0117   0.0063   0.0127   0.0056   0.0047   0.0095   0.00    6.9
2024/05/18 00:04:30.000   3655333.8130   1403901.0372   5018037.9773   1   8   0.0117   0.0064   0.0127   0.0057   0.0048   0.0095   0.00    6.2
2024/05/18 00:05:00.000   3655333.8140   1403901.0385   5018037.9832   1   8   0.0117   0.0065   0.0127   0.0056   0.0047   0.0095   0.00    5.7
2024/05/18 00:05:30.000   3655333.8166   1403901.0390   5018037.9865   1   8   0.0117   0.0064   0.0127   0.0057   0.0047   0.0094   0.00    5.2
2024/05/18 00:06:00.000   3655333.8208   1403901.0390   5018037.9954   1   8   0.0117   0.0065   0.0127   0.0057   0.0046   0.0094   0.00    4.5
2024/05/18 00:06:30.000   3655333.8231   1403901.0405   5018037.9935   1   8   0.0117   0.0065   0.0127   0.0057   0.0046   0.0094   0.00    3.9
2024/05/18 00:07:00.000   3655333.8224   1403901.0388   5018038.0012   1   7   0.0119   0.0066   0.0150   0.0060   0.0058   0.0102   0.00    3.0
2024/05/18 00:07:30.000   3655333.8245   1403901.0463   5018037.9918   1   7   0.0119   0.0066   0.0150   0.0060   0.0058   0.0102   0.00    3.0
2024/05/18 00:08:00.000   3655333.8203   1403901.0426   5018037.9924   1   7   0.0119   0.0067   0.0149   0.0060   0.0057   0.0102   0.00    3.0
2024/05/18 00:08:30.000   3655333.8206   1403901.0432   5018037.9869   1   7   0.0119   0.0067   0.0149   0.0060   0.0057   0.0101   0.00    3.3
2024/05/18 00:09:00.000   3655333.8240   1403901.0423   5018037.9887   1   7   0.0119   0.0066   0.0149   0.0061   0.0056   0.0100   0.00    3.6
2024/05/18 00:09:30.000   3655333.8247   1403901.0423   5018037.9939   1   7   0.0119   0.0067   0.0149   0.0060   0.0057   0.0100   0.00    4.1
2024/05/18 00:10:00.000   3655333.8242   1403901.0437   5018037.9953   1   7   0.0120   0.0068   0.0148   0.0061   0.0056   0.0099   0.00    4.6
2024/05/18 00:10:30.000   3655333.8197   1403901.0420   5018037.9921   1   7   0.0119   0.0068   0.0148   0.0060   0.0056   0.0099   0.00    5.2
2024/05/18 00:11:00.000   3655333.8260   1403901.0483   5018037.9874   1   7   0.0119   0.0068   0.0148   0.0061   0.0056   0.0098   0.00    6.0
2024/05/18 00:11:30.000   3655333.8188   1403901.0459   5018037.9844   1   7   0.0120   0.0068   0.0147   0.0060   0.0056   0.0098   0.00    6.8
2024/05/18 00:12:00.000   3655333.8134   1403901.0419   5018037.9828   1   7   0.0120   0.0068   0.0147   0.0061   0.0056   0.0098   0.00    7.5
2024/05/18 00:12:30.000   3655333.8199   1403901.0422   5018037.9868   1   7   0.0120   0.0068   0.0147   0.0061   0.0055   0.0097   0.00    8.3
2024/05/18 00:13:00.000   3655333.8189   1403901.0382   5018037.9800   1   7   0.0120   0.0068   0.0146   0.0062   0.0055   0.0097   0.00    8.1
2024/05/18 00:13:30.000   3655333.8207   1403901.0465   5018037.9785   1   7   0.0120   0.0069   0.0146   0.0061   0.0055   0.0096   0.00    8.1
2024/05/18 00:14:00.000   3655333.8119   1403901.0391   5018037.9784   1   7   0.0120   0.0069   0.0146   0.0061   0.0055   0.0096   0.00    8.5
2024/05/18 00:14:30.000   3655333.8109   1403901.0415   5018037.9795   1   7   0.0120   0.0068   0.0145   0.0062   0.0054   0.0096   0.00    9.3
2024/05/18 00:15:00.000   3655333.8220   1403901.0409   5018037.9860   1   7   0.0121   0.0069   0.0145   0.0062   0.0054   0.0095   0.00   10.0
2024/05/18 00:15:30.000   3655333.8214   1403901.0426   5018037.9833   1   7   0.0121   0.0070   0.0145   0.0062   0.0054   0.0094   0.00   11.1
2024/05/18 00:16:00.000   3655333.8274   1403901.0398   5018037.9931   1   7   0.0121   0.0070   0.0145   0.0063   0.0053   0.0094   0.00   12.0
2024/05/18 00:16:30.000   3655333.8202   1403901.0357   5018037.9865   1   7   0.0121   0.0069   0.0144   0.0064   0.0053   0.0093   0.00   11.9
2024/05/18 00:17:00.000   3655333.8214   1403901.0413   5018037.9890   1   7   0.0121   0.0070   0.0144   0.0063   0.0053   0.0093   0.00   12.1
2024/05/18 00:17:30.000   3655333.8161   1403901.0375   5018037.9897   1   7   0.0121   0.0070   0.0144   0.0064   0.0052   0.0092   0.00   12.2
2024/05/18 00:18:00.000   3655333.8184   1403901.0397   5018037.9875   1   7   0.0121   0.0069   0.0144   0.0064   0.0052   0.0092   0.00   12.2
2024/05/18 00:18:30.000   3655333.8197   1403901.0436   5018037.9873   1   7   0.0122   0.0070   0.0143   0.0064   0.0053   0.0092   0.00   12.6
2024/05/18 00:19:00.000   3655333.8136   1403901.0370   5018037.9899   1   7   0.0122   0.0071   0.0143   0.0064   0.0052   0.0091   0.00   13.2
2024/05/18 00:19:30.000   3655333.8163   1403901.0391   5018037.9872   1   7   0.0122   0.0070   0.0143   0.0065   0.0051   0.0091   0.00   13.4
2024/05/18 00:20:00.000   3655333.8138   1403901.0364   5018037.9864   1   7   0.0123   0.0071   0.0143   0.0065   0.0052   0.0091   0.00   13.5
2024/05/18 00:20:30.000   3655333.8215   1403901.0384   5018037.9822   1   7   0.0123   0.0071   0.0142   0.0065   0.0051   0.0090   0.00   13.8
2024/05/18 00:21:00.000   3655333.8190   1403901.0373   5018037.9929   1   7   0.0123   0.0071   0.0142   0.0066   0.0051   0.0089   0.00   14.0
2024/05/18 00:21:30.000   3655333.8281   1403901.0419   5018037.9893   1   7   0.0123   0.0072   0.0142   0.0065   0.0050   0.0089   0.00   14.5
2024/05/18 00:22:00.000   3655333.8216   1403901.0407   5018037.9799   1   7   0.0124   0.0072   0.0142   0.0066   0.0050   0.0089   0.00   14.7
2024/05/18 00:22:30.000   3655333.8095   1403901.0335   5018037.9795   1   7   0.0124   0.0072   0.0142   0.0067   0.0050   0.0088   0.00   14.5
2024/05/18 00:23:00.000   3655333.8205   1403901.0368   5018037.9917   1   7   0.0125   0.0073   0.0142   0.0067   0.0049   0.0088   0.00   14.7
2024/05/18 00:23:30.000   3655333.8198   1403901.0374   5018037.9865   1   7   0.0125   0.0073   0.0141   0.0067   0.0049   0.0087   0.00   15.4
2024/05/18 00:24:00.000   3655333.8101   1403901.0328   5018037.9798   1   7   0.0125   0.0073   0.0141   0.0068   0.0050   0.0087   0.00   15.6
2024/05/18 00:24:30.000   3655333.8213   1403901.0388   5018037.9895   1   7   0.0125   0.0074   0.0141   0.0068   0.0049   0.0086   0.00   16.1
2024/05/18 00:25:00.000   3655333.8176   1403901.0423   5018037.9865   1   7   0.0126   0.0074   0.0141   0.0068   0.0049   0.0086   0.00   16.5
2024/05/18 00:25:30.000   3655333.8299   1403901.0470   5018037.9940   1   7   0.0126   0.0073   0.0141   0.0069   0.0049   0.0086   0.00   17.1
2024/05/18 00:26:00.000   3655333.8255   1403901.0433   5018037.9977   1   7   0.0127   0.0074   0.0141   0.0069   0.0049   0.0085   0.00   17.4
2024/05/18 00:26:30.000   3655333.8190   1403901.0400   5018037.9944   1   7   0.0127   0.0074   0.0141   0.0070   0.0048   0.0085   0.00   17.7
2024/05/18 00:27:00.000   3655333.8227   1403901.0430   5018037.9921   1   8   0.0126   0.0074   0.0120   0.0071   0.0052   0.0073   0.00    3.0
2024/05/18 00:27:30.000   3655333.8228   1403901.0440   5018037.9935   1   8   0.0126   0.0075   0.0120   0.0072   0.0052   0.0073   0.00    4.7
2024/05/18 00:28:00.000   3655333.8104   1403901.0413   5018037.9963   1   7   0.0150   0.0076   0.0130   0.0077   0.0057   0.0097   0.00   20.9
2024/05/18 00:28:30.000   3655333.8039   1403901.0339   5018037.9897   1   7   0.0150   0.0076   0.0129   0.0078   0.0056   0.0096   0.00   26.7
2024/05/18 00:29:00.000   3655333.8145   1403901.0371   5018037.9944   1   7   0.0150   0.0077   0.0129   0.0079   0.0056   0.0095   0.00   32.1
2024/05/18 00:29:30.000   3655333.8068   1403901.0371   5018037.9857   1   7   0.0150   0.0077   0.0128   0.0079   0.0056   0.0094   0.00   39.4
2024/05/18 00:30:00.000   3655333.8071   1403901.0389   5018037.9841   1   7   0.0150   0.0077   0.0128   0.0079   0.0057   0.0094   0.00   47.1
2024/05/18 00:30:30.000   3655333.8067   1403901.0401   5018037.9883   1   7   0.0150   0.0078   0.0127   0.0080   0.0056   0.0093   0.00   54.2
2024/05/18 00:31:00.000   3655333.8056   1403901.0398   5018037.9848   1   7   0.0150   0.0078   0.0127   0.0080   0.0057   0.0092   0.00   63.4
2024/05/18 00:31:30.000   3655333.8103   1403901.0419   5018037.9819   1   7   0.0151   0.0078   0.0126   0.0081   0.0056   0.0091   0.00   72.5
2024/05/18 00:32:00.000   3655333.8123   1403901.0406   5018037.9776   1   7   0.0151   0.0078   0.0126   0.0082   0.0057   0.0091   0.00   75.6
2024/05/18 00:32:30.000   3655333.8135   1403901.0421   5018037.9831   1   7   0.0151   0.0078   0.0126   0.0083   0.0057   0.0090   0.00   82.2
2024/05/18 00:33:00.000   3655333.7974   1403901.0341   5018037.9796   1   7   0.0151   0.0079   0.0125   0.0083   0.0056   0.0089   0.00   84.0
2024/05/18 00:33:30.000   3655333.8095   1403901.0360   5018037.9826   1   7   0.0151   0.0080   0.0125   0.0084   0.0057   0.0089   0.00   85.5
2024/05/18 00:34:00.000   3655333.8111   1403901.0390   5018037.9793   1   7   0.0152   0.0080   0.0125   0.0084   0.0057   0.0088   0.00   86.3
2024/05/18 00:34:30.000   3655333.8219   1403901.0428   5018037.9855   1   7   0.0152   0.0081   0.0125   0.0085   0.0057   0.0087   0.00   83.4
2024/05/18 00:35:00.000   3655333.8206   1403901.0442   5018037.9869   1   7   0.0152   0.0081   0.0124   0.0085   0.0057   0.0087   0.00   82.9
2024/05/18 00:35:30.000   3655333.8171   1403901.0433   5018037.9946   1   7   0.0152   0.0082   0.0124   0.0086   0.0057   0.0086   0.00   83.7
2024/05/18 00:36:00.000   3655333.8176   1403901.0366   5018037.9981   1   8   0.0114   0.0065   0.0120   0.0050   0.0044   0.0066   0.00    5.5
2024/05/18 00:36:30.000   3655333.8225   1403901.0411   5018037.9948   1   9   0.0111   0.0060   0.0114   0.0042   0.0026   0.0058   0.00    8.5
2024/05/18 00:37:00.000   3655333.8229   1403901.0427   5018037.9984   1   9   0.0111   0.0059   0.0114   0.0042   0.0026   0.0057   0.00   15.2
2024/05/18 00:37:30.000   3655333.8323   1403901.0458   5018038.0001   1   9   0.0111   0.0059   0.0114   0.0041   0.0029   0.0057   0.00   19.2
2024/05/18 00:38:00.000   3655333.8169   1403901.0379   5018037.9907   1   9   0.0111   0.0059   0.0114   0.0042   0.0028   0.0056   0.00   25.1
2024/05/18 00:38:30.000   3655333.8235   1403901.0452   5018037.9939   1   9   0.0110   0.0058   0.0113   0.0043   0.0028   0.0055   0.00   27.5
2024/05/18 00:39:00.000   3655333.8153   1403901.0421   5018037.9783   1   9   0.0110   0.0058   0.0113   0.0042   0.0025   0.0055   0.00   35.5
2024/05/18 00:39:30.000   3655333.8182   1403901.0418   5018037.9849   1   9   0.0110   0.0059   0.0113   0.0042   0.0027   0.0054   0.00   41.1
2024/05/18 00:40:00.000   3655333.8097   1403901.0442   5018037.9812   1   9   0.0110   0.0059   0.0113   0.0043   0.0027   0.0053   0.00   48.2
2024/05/18 00:40:30.000   3655333.8166   1403901.0424   5018037.9890   1   9   0.0110   0.0059   0.0113   0.0043   0.0027   0.0053   0.00   56.0
2024/05/18 00:41:00.000   3655333.8172   1403901.0428   5018037.9826   1   9   0.0110   0.0058   0.0114   0.0042   0.0027   0.0052   0.00   63.7
2024/05/18 00:41:30.000   3655333.8134   1403901.0379   5018037.9810   1   9   0.0109   0.0058   0.0113   0.0042   0.0026   0.0051   0.00   72.2
2024/05/18 00:42:00.000   3655333.8180   1403901.0400   5018037.9801   1   9   0.0109   0.0058   0.0113   0.0043   0.0027   0.0051   0.00   77.6
2024/05/18 00:42:30.000   3655333.8138   1403901.0385   5018037.9788   1   9   0.0109   0.0058   0.0113   0.0041   0.0027   0.0050   0.00   81.8
2024/05/18 00:43:00.000   3655333.8141   1403901.0364   5018037.9844   1   9   0.0109   0.0058   0.0113   0.0043   0.0026   0.0049   0.00   89.1
2024/05/18 00:43:30.000   3655333.8154   1403901.0393   5018037.9831   1   9   0.0109   0.0056   0.0113   0.0044   0.0028   0.0049   0.00   97.7
2024/05/18 00:44:00.000   3655333.8080   1403901.0348   5018037.9815   1   9   0.0109   0.0059   0.0114   0.0044   0.0027   0.0048   0.00  104.0
2024/05/18 00:44:30.000   3655333.8198   1403901.0398   5018037.9851   1   9   0.0109   0.0058   0.0113   0.0042   0.0027   0.0048   0.00  100.9
2024/05/18 00:45:00.000   3655333.8069   1403901.0346   5018037.9774   1   9   0.0108   0.0057   0.0114   0.0042   0.0027   0.0047   0.00  105.4
2024/05/18 00:45:30.000   3655333.8133   1403901.0346   5018037.9819   1   9   0.0108   0.0057   0.0114   0.0042   0.0028   0.0047   0.00  110.5
2024/05/18 00:46:00.000   3655333.8109   1403901.0367   5018037.9801   1   9   0.0108   0.0058   0.0114   0.0041   0.0026   0.0046   0.00  115.4
2024/05/18 00:46:30.000   3655333.8131   1403901.0412   5018037.9891   1   9   0.0108   0.0057   0.0114   0.0042   0.0029   0.0045   0.00  118.7
2024/05/18 00:47:00.000   3655333.8080   1403901.0393   5018037.9907   1   9   0.0107   0.0056   0.0114   0.0043   0.0027   0.0045   0.00  128.1
2024/05/18 00:47:30.000   3655333.8264   1403901.0444   5018037.9908   1   9   0.0108   0.0058   0.0114   0.0041   0.0028   0.0044   0.00  137.3
2024/05/18 00:48:00.000   3655333.8193   1403901.0392   5018037.9900   1   9   0.0108   0.0057   0.0114   0.0041   0.0027   0.0044   0.00  148.1
2024/05/18 00:48:30.000   3655333.8171   1403901.0404   5018037.9939   1   9   0.0108   0.0056   0.0114   0.0042   0.0028   0.0044   0.00  150.3
2024/05/18 00:49:00.000   3655333.8137   1403901.0431   5018037.9903   1   9   0.0108   0.0058   0.0115   0.0041   0.0027   0.0043   0.00  159.1
2024/05/18 00:49:30.000   3655333.8038   1403901.0364   5018037.9906   1   9   0.0108   0.0057   0.0115   0.0041   0.0025   0.0042   0.00  167.2
2024/05/18 00:50:00.000   3655333.8025   1403901.0315   5018037.9885   1   9   0.0106   0.0057   0.0115   0.0041   0.0027   0.0042   0.00  175.6
2024/05/18 00:50:30.000   3655333.8005   1403901.0288   5018037.9867   1   9   0.0107   0.0056   0.0115   0.0041   0.0028   0.0042   0.00  175.1
2024/05/18 00:51:00.000   3655333.8066   1403901.0339   5018037.9926   1   9   0.0107   0.0056   0.0115   0.0042   0.0027   0.0041   0.00  181.3
2024/05/18 00:51:30.000   3655333.8160   1403901.0393   5018037.9915   1   9   0.0107   0.0056   0.0116   0.0041   0.0028   0.0041   0.00  188.0
2024/05/18 00:52:00.000   3655333.8064   1403901.0344   5018037.9948   1   9   0.0106   0.0057   0.0116   0.0042   0.0028   0.0040   0.00  198.7
2024/05/18 00:52:30.000   3655333.8058   1403901.0351   5018037.9913   1   9   0.0106   0.0056   0.0116   0.0041   0.0028   0.0040   0.00  204.4
2024/05/18 00:53:00.000   3655333.8170   1403901.0382   5018037.9898   1   9   0.0106   0.0056   0.0117   0.0042   0.0027   0.0039   0.00  212.5
2024/05/18 00:53:30.000   3655333.8019   1403901.0343   5018037.9861   1   9   0.0106   0.0055   0.0117   0.0041   0.0030   0.0040   0.00  213.1
2024/05/18 00:54:00.000   3655333.8107   1403901.0373   5018037.9874   1   9   0.0105   0.0055   0.0117   0.0042   0.0029   0.0039   0.00  210.3
2024/05/18 00:54:30.000   3655333.8108   1403901.0384   5018037.9833   1   9   0.0106   0.0057   0.0118   0.0042   0.0029   0.0039   0.00  206.7
2024/05/18 00:55:00.000   3655333.8187   1403901.0418   5018037.9917   1   9   0.0106   0.0056   0.0118   0.0041   0.0028   0.0039   0.00  195.2
2024/05/18 00:55:30.000   3655333.8081   1403901.0339   5018037.9840   1   9   0.0106   0.0056   0.0118   0.0041   0.0029   0.0039   0.00  193.5
2024/05/18 00:56:00.000   3655333.8184   1403901.0396   5018037.9796   1   9   0.0105   0.0055   0.0118   0.0042   0.0029   0.0038   0.00  189.8
2024/05/18 00:56:30.000   3655333.8245   1403901.0403   5018037.9871   1   9   0.0105   0.0056   0.0119   0.0042   0.0030   0.0038   0.00  187.8
2024/05/18 00:57:00.000   3655333.8221   1403901.0414   5018037.9910   1   9   0.0105   0.0055   0.0119   0.0042   0.0028   0.0038   0.00  188.5
2024/05/18 00:57:30.000   3655333.8255   1403901.0394   5018037.9957   1   9   0.0105   0.0057   0.0119   0.0041   0.0030   0.0038   0.00  197.7
2024/05/18 00:58:00.000   3655333.8189   1403901.0383   5018037.9939   1   9   0.0105   0.0056   0.0120   0.0041   0.0031   0.0038   0.00  198.7
2024/05/18 00:58:30.000   3655333.8034   1403901.0336   5018037.9950   1   9   0.0105   0.0057   0.0120   0.0040   0.0028   0.0037   0.00  205.6
2024/05/18 00:59:00.000   3655333.8072   1403901.0357   5018037.9843   1   8   0.0107   0.0055   0.0154   0.0037   0.0047  -0.0028   0.00  268.3
2024/05/18 00:59:30.000   3655333.8184   1403901.0389   5018037.9867   1   8   0.0107   0.0057   0.0154   0.0040   0.0047  -0.0027   0.00  283.4
2024/05/18 01:00:00.000   3655333.8148   1403901.0380   5018037.9807   1   8   0.0106   0.0058   0.0154   0.0038   0.0047  -0.0026   0.00  283.2
2024/05/18 01:00:30.000   3655333.8173   1403901.0416   5018037.9771   1   8   0.0107   0.0057   0.0154   0.0037   0.0047  -0.0024   0.00  275.6
2024/05/18 01:01:00.000   3655333.8117   1403901.0378   5018037.9797   1   8   0.0106   0.0058   0.0154   0.0040   0.0046  -0.0022   0.00  271.7
2024/05/18 01:01:30.000   3655333.8147   1403901.0373   5018037.9782   1   8   0.0106   0.0057   0.0154   0.0039   0.0047  -0.0020   0.00  268.4
2024/05/18 01:02:00.000   3655333.8071   1403901.0361   5018037.9864   1   8   0.0105   0.0058   0.0154   0.0039   0.0047  -0.0019   0.00  261.1
2024/05/18 01:02:30.000   3655333.8115   1403901.0364   5018037.9828   1   8   0.0105   0.0055   0.0154   0.0038   0.0047  -0.0018   0.00  259.6
2024/05/18 01:03:00.000   3655333.8194   1403901.0442   5018037.9839   1   8   0.0105   0.0057   0.0154   0.0040   0.0047  -0.0015   0.00  245.9
2024/05/18 01:03:30.000   3655333.8254   1403901.0459   5018037.9811   1   8   0.0105   0.0056   0.0154   0.0038   0.0047  -0.0011   0.00  234.8
2024/05/18 01:04:00.000   3655333.8206   1403901.0381   5018037.9750   1   8   0.0104   0.0057   0.0154   0.0039   0.0047  -0.0006   0.00  228.5
2024/05/18 01:04:30.000   3655333.8172   1403901.0382   5018037.9820   1   8   0.0104   0.0058   0.0154   0.0039   0.0047   0.0007   0.00  225.9
2024/05/18 01:05:00.000   3655333.8016   1403901.0337   5018037.9785   1   8   0.0104   0.0056   0.0154   0.0040   0.0047   0.0011   0.00  227.9
2024/05/18 01:05:30.000   3655333.8206   1403901.0376   5018037.9758   1   8   0.0104   0.0056   0.0154   0.0039   0.0047   0.0014   0.00  217.8
2024/05/18 01:06:00.000   3655333.8219   1403901.0362   5018037.9812   1   8   0.0104   0.0057   0.0154   0.0040   0.0047   0.0016   0.00  211.1
2024/05/18 01:06:30.000   3655333.8138   1403901.0404   5018037.9918   1   8   0.0103   0.0055   0.0154   0.0040   0.0048   0.0019   0.00  213.0
2024/05/18 01:07:00.000   3655333.8213   1403901.0409   5018037.9818   1   8   0.0103   0.0058   0.0155   0.0040   0.0047   0.0022   0.00  203.9
2024/05/18 01:07:30.000   3655333.8327   1403901.0466   5018037.9801   1   8   0.0103   0.0057   0.0155   0.0041   0.0048   0.0024   0.00  190.2
2024/05/18 01:08:00.000   3655333.8307   1403901.0473   5018037.9839   1   9   0.0102   0.0054   0.0125   0.0040   0.0046   0.0035   0.00    6.0
2024/05/18 01:08:30.000   3655333.8337   1403901.0470   5018037.9808   1   9   0.0102   0.0057   0.0124   0.0040   0.0046   0.0036   0.00    5.3
2024/05/18 01:09:00.000   3655333.8255   1403901.0452   5018037.9826   1   9   0.0102   0.0058   0.0124   0.0042   0.0047   0.0037   0.00    8.9
2024/05/18 01:09:30.000   3655333.8300   1403901.0470   5018037.9871   1   9   0.0102   0.0057   0.0124   0.0041   0.0048   0.0038   0.00   11.2
2024/05/18 01:10:00.000   3655333.8290   1403901.0471   5018037.9891   1   9   0.0101   0.0055   0.0124   0.0040   0.0046   0.0039   0.00   13.6
2024/05/18 01:10:30.000   3655333.8299   1403901.0470   5018037.9876   1   9   0.0101   0.0056   0.0124   0.0041   0.0047   0.0040   0.00   15.6
2024/05/18 01:11:00.000   3655333.8265   1403901.0413   5018037.9921   1   9   0.0101   0.0057   0.0124   0.0041   0.0047   0.0041   0.00   18.3
2024/05/18 01:11:30.000   3655333.8222   1403901.0404   5018037.9841   1   9   0.0101   0.0057   0.0124   0.0040   0.0048   0.0042   0.00   21.1
2024/05/18 01:12:00.000   3655333.8295   1403901.0448   5018037.9892   1   9   0.0101   0.0059   0.0124   0.0042   0.0048   0.0043   0.00   22.1
2024/05/18 01:12:30.000   3655333.8271   1403901.0406   5018037.9906   1   9   0.0101   0.0057   0.0123   0.0041   0.0048   0.0044   0.00   23.1
2024/05/18 01:13:00.000   3655333.8233   1403901.0416   5018037.9861   1   9   0.0100   0.0057   0.0124   0.0042   0.0048   0.0045   0.00   24.5
2024/05/18 01:13:30.000   3655333.8211   1403901.0368   5018037.9817   1   9   0.0100   0.0056   0.0124   0.0042   0.0048   0.0046   0.00   26.1
2024/05/18 01:14:00.000   3655333.8156   1403901.0364   5018037.9872   1   9   0.0100   0.0055   0.0123   0.0042   0.0049   0.0047   0.00   28.3
2024/05/18 01:14:30.000   3655333.8258   1403901.0425   5018037.9925   1   9   0.0100   0.0055   0.0124   0.0043   0.0050   0.0048   0.00   29.1
2024/05/18 01:15:00.000   3655333.8171   1403901.0345   5018037.9824   1   9   0.0100   0.0056   0.0123   0.0042   0.0049   0.0048   0.00   32.7
2024/05/18 01:15:30.000   3655333.8278   1403901.0397   5018037.9829   1   9   0.0100   0.0054   0.0124   0.0043   0.0049   0.0049   0.00   35.5
2024/05/18 01:16:00.000   3655333.8275   1403901.0408   5018037.9843   1   9   0.0099   0.0055   0.0123   0.0042   0.0049   0.0050   0.00   37.8
2024/05/18 01:16:30.000   3655333.8153   1403901.0339   5018037.9812   1   9   0.0099   0.0057   0.0123   0.0043   0.0049   0.0051   0.00   40.3
2024/05/18 01:17:00.000   3655333.8256   1403901.0433   5018037.9920   1   9   0.0099   0.0056   0.0124   0.0044   0.0051   0.0052   0.00   43.0
2024/05/18 01:17:30.000   3655333.8303   1403901.0470   5018037.9918   1   9   0.0099   0.0056   0.0124   0.0044   0.0050   0.0052   0.00   42.9
2024/05/18 01:18:00.000   3655333.8282   1403901.0465   5018037.9918   1   9   0.0099   0.0058   0.0123   0.0044   0.0050   0.0054   0.00   43.7
2024/05/18 01:18:30.000   3655333.8394   1403901.0510   5018037.9907   1   9   0.0099   0.0057   0.0124   0.0044   0.0050   0.0055   0.00   42.7
2024/05/18 01:19:00.000   3655333.8236   1403901.0434   5018037.9823   1   9   0.0099   0.0056   0.0124   0.0044   0.0050   0.0055   0.00   45.5
2024/05/18 01:19:30.000   3655333.8257   1403901.0423   5018037.9891   1   9   0.0099   0.0056   0.0124   0.0043   0.0050   0.0056   0.00   46.4
2024/05/18 01:20:00.000   3655333.8338   1403901.0489   5018037.9911   1   9   0.0099   0.0056   0.0125   0.0045   0.0050   0.0057   0.00   47.3
2024/05/18 01:20:30.000   3655333.8243   1403901.0406   5018037.9911   1   9   0.0098   0.0054   0.0124   0.0045   0.0052   0.0057   0.00   51.0
2024/05/18 01:21:00.000   3655333.8299   1403901.0452   5018037.9903   1   9   0.0098   0.0057   0.0125   0.0045   0.0051   0.0059   0.00   51.7
2024/05/18 01:21:30.000   3655333.8190   1403901.0401   5018037.9908   1   9   0.0098   0.0055   0.0125   0.0046   0.0051   0.0060   0.00   55.2
2024/05/18 01:22:00.000   3655333.8178   1403901.0364   5018037.9830   1   9   0.0098   0.0057   0.0125   0.0045   0.0051   0.0060   0.00   59.6
2024/05/18 01:22:30.000   3655333.8229   1403901.0391   5018037.9860   1   9   0.0098   0.0056   0.0125   0.0046   0.0052   0.0062   0.00   61.2
2024/05/18 01:23:00.000   3655333.8328   1403901.0442   5018037.9979   1   9   0.0098   0.0056   0.0125   0.0046   0.0052   0.0062   0.00   62.0
2024/05/18 01:23:30.000   3655333.8342   1403901.0427   5018037.9977   1   9   0.0098   0.0056   0.0125   0.0046   0.0052   0.0063   0.00   62.4
2024/05/18 01:24:00.000   3655333.8338   1403901.0452   5018037.9932   1   9   0.0098   0.0057   0.0126   0.0047   0.0054   0.0064   0.00   61.9
2024/05/18 01:24:30.000   3655333.8176   1403901.0363   5018037.9864   1   9   0.0098   0.0055   0.0126   0.0046   0.0052   0.0064   0.00   63.4
2024/05/18 01:25:00.000   3655333.8260   1403901.0412   5018037.9896   1   9   0.0098   0.0057   0.0126   0.0047   0.0053   0.0065   0.00   64.3
2024/05/18 01:25:30.000   3655333.8098   1403901.0312   5018037.9766   1   9   0.0098   0.0056   0.0127   0.0046   0.0052   0.0066   0.00   69.9
2024/05/18 01:26:00.000   3655333.8140   1403901.0350   5018037.9788   1   9   0.0098   0.0056   0.0127   0.0047   0.0055   0.0067   0.00   73.7
2024/05/18 01:26:30.000   3655333.8171   1403901.0363   5018037.9869   1   9   0.0098   0.0057   0.0127   0.0047   0.0054   0.0067   0.00   75.8
2024/05/18 01:27:00.000   3655333.8143   1403901.0361   5018037.9850   1   9   0.0098   0.0056   0.0127   0.0048   0.0055   0.0068   0.00   78.8
2024/05/18 01:27:30.000   3655333.8209   1403901.0410   5018037.9877   1   9   0.0098   0.0055   0.0128   0.0049   0.0056   0.0069   0.00   78.3
2024/05/18 01:28:00.000   3655333.8203   1403901.0390   5018037.9877   1   9   0.0098   0.0059   0.0128   0.0050   0.0055   0.0070   0.00   83.8
2024/05/18 01:28:30.000   3655333.8283   1403901.0455   5018037.9931   1   9   0.0098   0.0055   0.0128   0.0049   0.0056   0.0071   0.00   85.9
2024/05/18 01:29:00.000   3655333.8251   1403901.0417   5018037.9906   1   9   0.0099   0.0057   0.0129   0.0049   0.0056   0.0072   0.00   86.1
2024/05/18 01:29:30.000   3655333.8260   1403901.0436   5018037.9943   1   9   0.0099   0.0058   0.0129   0.0049   0.0057   0.0073   0.00   88.2
2024/05/18 01:30:00.000   3655333.8325   1403901.0472   5018037.9933   1   9   0.0099   0.0057   0.0129   0.0048   0.0057   0.0074   0.00   84.3
2024/05/18 01:30:30.000   3655333.8222   1403901.0425   5018037.9906   1   9   0.0099   0.0058   0.0130   0.0049   0.0058   0.0074   0.00   82.1
2024/05/18 01:31:00.000   3655333.8209   1403901.0408   5018037.9905   1   9   0.0099   0.0060   0.0130   0.0050   0.0058   0.0075   0.00   83.0
2024/05/18 01:31:30.000   3655333.8049   1403901.0322   5018037.9853   1   9   0.0099   0.0059   0.0131   0.0050   0.0057   0.0076   0.00   87.3
2024/05/18 01:32:00.000   3655333.8163   1403901.0370   5018037.9877   1   9   0.0100   0.0059   0.0132   0.0050   0.0058   0.0077   0.00   89.3
2024/05/18 01:32:30.000   3655333.8215   1403901.0419   5018037.9921   1   9   0.0099   0.0059   0.0132   0.0051   0.0059   0.0078   0.00   89.8
2024/05/18 01:33:00.000   3655333.8249   1403901.0461   5018037.9912   1   9   0.0100   0.0059   0.0132   0.0052   0.0060   0.0079   0.00   90.6
2024/05/18 01:33:30.000   3655333.8283   1403901.0498   5018037.9964   1   9   0.0100   0.0059   0.0133   0.0052   0.0059   0.0079   0.00   90.3
2024/05/18 01:34:00.000   3655333.8226   1403901.0440   5018037.9889   1   9   0.0100   0.0059   0.0133   0.0052   0.0061   0.0080   0.00   88.2
2024/05/18 01:34:30.000   3655333.8326   1403901.0527   5018038.0028   1   9   0.0100   0.0062   0.0134   0.0052   0.0060   0.0081   0.00   84.9
2024/05/18 01:35:00.000   3655333.8228   1403901.0466   5018037.9930   1   9   0.0100   0.0061   0.0134   0.0053   0.0061   0.0082   0.00   83.8
2024/05/18 01:35:30.000   3655333.8184   1403901.0386   5018037.9840   1   9   0.0101   0.0059   0.0135   0.0053   0.0062   0.0083   0.00   88.2
2024/05/18 01:36:00.000   3655333.8139   1403901.0395   5018037.9811   1   9   0.0101   0.0060   0.0135   0.0054   0.0061   0.0084   0.00   93.2
2024/05/18 01:36:30.000   3655333.8225   1403901.0432   5018037.9948   1   9   0.0101   0.0060   0.0136   0.0054   0.0061   0.0084   0.00   95.0
2024/05/18 01:37:00.000   3655333.8139   1403901.0352   5018037.9876   1   9   0.0102   0.0061   0.0136   0.0054   0.0063   0.0085   0.00  101.8
2024/05/18 01:37:30.000   3655333.8165   1403901.0450   5018037.9913   1   9   0.0102   0.0059   0.0138   0.0055   0.0062   0.0086   0.00  103.2
2024/05/18 01:38:00.000   3655333.8116   1403901.0410   5018037.9839   1   9   0.0102   0.0059   0.0138   0.0054   0.0064   0.0087   0.00  104.9
2024/05/18 01:38:30.000   3655333.8204   1403901.0443   5018037.9868   1   9   0.0102   0.0061   0.0138   0.0054   0.0064   0.0088   0.00  105.0
2024/05/18 01:39:00.000   3655333.8188   1403901.0433   5018037.9889   1   9   0.0102   0.0060   0.0139   0.0056   0.0064   0.0089   0.00  104.9
2024/05/18 01:39:30.000   3655333.8246   1403901.0481   5018037.9875   1   9   0.0103   0.0060   0.0140   0.0056   0.0065   0.0090   0.00  103.9
2024/05/18 01:40:00.000   3655333.8196   1403901.0423   5018037.9868   1   9   0.0103   0.0059   0.0140   0.0058   0.0065   0.0091   0.00  103.9
2024/05/18 01:40:30.000   3655333.8168   1403901.0424   5018037.9847   1   9   0.0104   0.0062   0.0141   0.0057   0.0066   0.0091   0.00  105.0
2024/05/18 01:41:00.000   3655333.8131   1403901.0378   5018037.9873   1   9   0.0104   0.0061   0.0142   0.0058   0.0066   0.0092   0.00  106.4
2024/05/18 01:41:30.000   3655333.8173   1403901.0423   5018037.9825   1   9   0.0105   0.0061   0.0143   0.0058   0.0067   0.0093   0.00  107.5
2024/05/18 01:42:00.000   3655333.8200   1403901.0432   5018037.9822   1   9   0.0105   0.0058   0.0143   0.0058   0.0067   0.0094   0.00  110.5
2024/05/18 01:42:30.000   3655333.8165   1403901.0437   5018037.9895   1   9   0.0105   0.0060   0.0144   0.0058   0.0068   0.0095   0.00  110.9
2024/05/18 01:43:00.000   3655333.8164   1403901.0414   5018037.9873   1   9   0.0106   0.0062   0.0145   0.0059   0.0069   0.0095   0.00  115.3
2024/05/18 01:43:30.000   3655333.8060   1403901.0379   5018037.9836   1   9   0.0106   0.0063   0.0146   0.0059   0.0069   0.0097   0.00  121.3
2024/05/18 01:44:00.000   3655333.8220   1403901.0467   5018038.0031   1   9   0.0107   0.0063   0.0146   0.0059   0.0070   0.0098   0.00  123.4
2024/05/18 01:44:30.000   3655333.8111   1403901.0420   5018037.9902   1   9   0.0107   0.0062   0.0147   0.0060   0.0070   0.0099   0.00  128.9
2024/05/18 01:45:00.000   3655333.8182   1403901.0461   5018037.9955   1   9   0.0107   0.0061   0.0148   0.0061   0.0070   0.0100   0.00  132.7
2024/05/18 01:45:30.000   3655333.8202   1403901.0465   5018037.9976   1   9   0.0108   0.0064   0.0148   0.0061   0.0071   0.0101   0.00  135.5
2024/05/18 01:46:00.000   3655333.8199   1403901.0458   5018037.9980   1   8   0.0119   0.0063   0.0166   0.0066   0.0076   0.0120   0.00  138.7
2024/05/18 01:46:30.000   3655333.8159   1403901.0409   5018037.9795   1   8   0.0121   0.0066   0.0167   0.0066   0.0077   0.0121   0.00  136.6
2024/05/18 01:47:00.000   3655333.8212   1403901.0455   5018037.9931   1   8   0.0121   0.0064   0.0169   0.0066   0.0078   0.0121   0.00  140.0
2024/05/18 01:47:30.000   3655333.8242   1403901.0460   5018037.9992   1   8   0.0121   0.0064   0.0169   0.0068   0.0078   0.0123   0.00  144.2
2024/05/18 01:48:00.000   3655333.8219   1403901.0471   5018037.9999   1   8   0.0122   0.0065   0.0170   0.0068   0.0079   0.0123   0.00  141.2
2024/05/18 01:48:30.000   3655333.8110   1403901.0401   5018037.9865   1   8   0.0123   0.0068   0.0171   0.0068   0.0080   0.0125   0.00  139.9
2024/05/18 01:49:00.000   3655333.8025   1403901.0345   5018037.9757   1   8   0.0124   0.0067   0.0172   0.0069   0.0080   0.0125   0.00  140.1
2024/05/18 01:49:30.000   3655333.8091   1403901.0416   5018037.9907   1   8   0.0124   0.0067   0.0173   0.0070   0.0081   0.0127   0.00  138.6
2024/05/18 01:50:00.000   3655333.8054   1403901.0361   5018037.9798   1   8   0.0124   0.0064   0.0174   0.0072   0.0081   0.0127   0.00  142.0
2024/05/18 01:50:30.000   3655333.8180   1403901.0425   5018037.9886   1   8   0.0125   0.0068   0.0175   0.0071   0.0082   0.0128   0.00  142.4
2024/05/18 01:51:00.000   3655333.8117   1403901.0404   5018037.9875   1   8   0.0126   0.0066   0.0176   0.0071   0.0084   0.0129   0.00  144.0
2024/05/18 01:51:30.000   3655333.8169   1403901.0422   5018037.9958   1   8   0.0126   0.0066   0.0177   0.0073   0.0083   0.0130   0.00  142.8
2024/05/18 01:52:00.000   3655333.8083   1403901.0362   5018037.9831   1   8   0.0128   0.0068   0.0178   0.0073   0.0084   0.0130   0.00  144.5
2024/05/18 01:52:30.000   3655333.8135   1403901.0445   5018037.9877   1   8   0.0127   0.0069   0.0178   0.0073   0.0085   0.0133   0.00  144.5
2024/05/18 01:53:00.000   3655333.8112   1403901.0392   5018037.9892   1   8   0.0128   0.0070   0.0179   0.0074   0.0086   0.0133   0.00  147.9
2024/05/18 01:53:30.000   3655333.8158   1403901.0396   5018037.9926   1   8   0.0128   0.0070   0.0180   0.0075   0.0086   0.0134   0.00  148.4
2024/05/18 01:54:00.000   3655333.8139   1403901.0406   5018037.9957   1   8   0.0129   0.0070   0.0181   0.0075   0.0087   0.0135   0.00  149.9
2024/05/18 01:54:30.000   3655333.8110   1403901.0430   5018037.9877   1   8   0.0130   0.0069   0.0182   0.0075   0.0088   0.0135   0.00  152.1
2024/05/18 01:55:00.000   3655333.8175   1403901.0468   5018038.0050   1   8   0.0131   0.0070   0.0183   0.0076   0.0089   0.0136   0.00  152.2
2024/05/18 01:55:30.000   3655333.8223   1403901.0487   5018038.0076   1   8   0.0130   0.0070   0.0183   0.0077   0.0089   0.0138   0.00  152.9
2024/05/18 01:56:00.000   3655333.8205   1403901.0444   5018038.0019   1   8   0.0132   0.0069   0.0184   0.0078   0.0090   0.0138   0.00  150.4
2024/05/18 01:56:30.000   3655333.8179   1403901.0446   5018037.9951   1   8   0.0132   0.0069   0.0185   0.0078   0.0090   0.0139   0.00  151.3
2024/05/18 01:57:00.000   3655333.8132   1403901.0402   5018037.9799   1   8   0.0133   0.0070   0.0185   0.0080   0.0090   0.0140   0.00  155.8
2024/05/18 01:57:30.000   3655333.8256   1403901.0518   5018037.9999   1   8   0.0133   0.0070   0.0185   0.0080   0.0091   0.0140   0.00  152.8
2024/05/18 01:58:00.000   3655333.8212   1403901.0433   5018037.9973   1   8   0.0134   0.0073   0.0186   0.0079   0.0092   0.0141   0.00  150.3
2024/05/18 01:58:30.000   3655333.8298   1403901.0508   5018038.0077   1   8   0.0135   0.0071   0.0187   0.0081   0.0092   0.0141   0.00  146.1
2024/05/18 01:59:00.000   3655333.8175   1403901.0452   5018037.9971   1   8   0.0135   0.0071   0.0187   0.0082   0.0092   0.0143   0.00  143.6
2024/05/18 01:59:30.000   3655333.8191   1403901.0461   5018037.9933   1   8   0.0135   0.0073   0.0188   0.0082   0.0093   0.0143   0.00  136.8
2024/05/18 02:00:00.000   3655333.8193   1403901.0464   5018037.9854   1   8   0.0136   0.0075   0.0188   0.0082   0.0093   0.0143   0.00  139.4
2024/05/18 02:00:30.000   3655333.8275   1403901.0463   5018037.9965   1   8   0.0136   0.0074   0.0188   0.0082   0.0094   0.0144   0.00  140.3
2024/05/18 02:01:00.000   3655333.8199   1403901.0416   5018037.9862   1   8   0.0136   0.0074   0.0188   0.0083   0.0094   0.0144   0.00  140.4
2024/05/18 02:01:30.000   3655333.8397   1403901.0506   5018038.0155   1   8   0.0137   0.0074   0.0189   0.0083   0.0095   0.0145   0.00  140.6
2024/05/18 02:02:00.000   3655333.8253   1403901.0436   5018037.9899   1   8   0.0137   0.0073   0.0189   0.0084   0.0095   0.0145   0.00  141.8
2024/05/18 02:02:30.000   3655333.8344   1403901.0448   5018038.0006   1   8   0.0138   0.0077   0.0189   0.0083   0.0096   0.0146   0.00  141.2
2024/05/18 02:03:00.000   3655333.8337   1403901.0479   5018038.0039   1   8   0.0138   0.0073   0.0189   0.0084   0.0097   0.0146   0.00  142.2
2024/05/18 02:03:30.000   3655333.8202   1403901.0381   5018037.9792   1   8   0.0139   0.0075   0.0189   0.0084   0.0097   0.0146   0.00  142.3
2024/05/18 02:04:00.000   3655333.8189   1403901.0435   5018037.9831   1   8   0.0138   0.0076   0.0189   0.0086   0.0096   0.0147   0.00  141.7
2024/05/18 02:04:30.000   3655333.8160   1403901.0408   5018037.9851   1   8   0.0138   0.0077   0.0189   0.0086   0.0096   0.0147   0.00  141.9
2024/05/18 02:05:00.000   3655333.8076   1403901.0393   5018037.9761   1   8   0.0139   0.0077   0.0189   0.0087   0.0096   0.0147   0.00  143.6
2024/05/18 02:05:30.000   3655333.8112   1403901.0386   5018037.9776   1   8   0.0139   0.0077   0.0189   0.0086   0.0097   0.0147   0.00  147.0
2024/05/18 02:06:00.000   3655333.8256   1403901.0470   5018037.9972   1   8   0.0139   0.0076   0.0189   0.0087   0.0098   0.0147   0.00  146.7
2024/05/18 02:06:30.000   3655333.8097   1403901.0634   5018037.9882   2   9   0.0148   0.0099   0.0195   0.0082   0.0093   0.0155   0.00    2.0
2024/05/18 02:07:00.000   3655333.8223   1403901.0469   5018037.9915   1   9   0.0118   0.0065   0.0172   0.0065   0.0079   0.0125   0.00    3.4
2024/05/18 02:07:30.000   3655333.8172   1403901.0443   5018037.9883   1   9   0.0117   0.0065   0.0171   0.0065   0.0080   0.0125   0.00    4.6
2024/05/18 02:08:00.000   3655333.8133   1403901.0456   5018037.9866   1   9   0.0116   0.0065   0.0170   0.0066   0.0079   0.0125   0.00    5.8
2024/05/18 02:08:30.000   3655333.8318   1403901.0503   5018038.0021   1   9   0.0117   0.0066   0.0170   0.0064   0.0077   0.0126   0.00    6.9
2024/05/18 02:09:00.000   3655333.8345   1403901.0506   5018038.0074   1   9   0.0117   0.0061   0.0170   0.0067   0.0078   0.0125   0.00    8.9
2024/05/18 02:09:30.000   3655333.8241   1403901.0440   5018037.9948   1   9   0.0117   0.0065   0.0169   0.0066   0.0078   0.0125   0.00   10.3
2024/05/18 02:10:00.000   3655333.8211   1403901.0422   5018037.9938   1   9   0.0117   0.0066   0.0169   0.0066   0.0078   0.0124   0.00   11.7
2024/05/18 02:10:30.000   3655333.8294   1403901.0451   5018038.0007   1  10   0.0111   0.0060   0.0148   0.0059   0.0062   0.0112   0.00    2.6
2024/05/18 02:11:00.000   3655333.8136   1403901.0392   5018037.9853   1  10   0.0111   0.0057   0.0147   0.0059   0.0064   0.0111   0.00    4.3
2024/05/18 02:11:30.000   3655333.8193   1403901.0452   5018037.9915   1  10   0.0111   0.0057   0.0147   0.0060   0.0063   0.0111   0.00    6.3
2024/05/18 02:12:00.000   3655333.8155   1403901.0408   5018037.9935   1  10   0.0111   0.0064   0.0146   0.0057   0.0062   0.0111   0.00    8.1
2024/05/18 02:12:30.000   3655333.8225   1403901.0458   5018038.0024   1  10   0.0110   0.0057   0.0146   0.0060   0.0063   0.0111   0.00   10.7
2024/05/18 02:13:00.000   3655333.8327   1403901.0502   5018038.0108   1  10   0.0111   0.0060   0.0145   0.0060   0.0062   0.0110   0.00   13.3
2024/05/18 02:13:30.000   3655333.8311   1403901.0504   5018038.0101   1  10   0.0111   0.0062   0.0145   0.0058   0.0061   0.0110   0.00   16.0
2024/05/18 02:14:00.000   3655333.8246   1403901.0455   5018038.0007   1  10   0.0111   0.0057   0.0144   0.0061   0.0062   0.0110   0.00   18.3
2024/05/18 02:14:30.000   3655333.8249   1403901.0447   5018037.9979   1  10   0.0111   0.0063   0.0144   0.0058   0.0061   0.0110   0.00   20.6
2024/05/18 02:15:00.000   3655333.8158   1403901.0410   5018037.9912   1  10   0.0110   0.0060   0.0143   0.0058   0.0062   0.0109   0.00   22.8
2024/05/18 02:15:30.000   3655333.8149   1403901.0400   5018037.9931   1  10   0.0110   0.0063   0.0143   0.0057   0.0059   0.0109   0.00   24.8
2024/05/18 02:16:00.000   3655333.8193   1403901.0467   5018037.9950   1  10   0.0111   0.0061   0.0142   0.0059   0.0060   0.0109   0.00   26.3
2024/05/18 02:16:30.000   3655333.8127   1403901.0389   5018037.9889   1  10   0.0110   0.0058   0.0142   0.0060   0.0061   0.0108   0.00   28.5
2024/05/18 02:17:00.000   3655333.8053   1403901.0365   5018037.9797   1  10   0.0110   0.0061   0.0141   0.0058   0.0059   0.0109   0.00   30.8
2024/05/18 02:17:30.000   3655333.8120   1403901.0411   5018037.9850   1  10   0.0110   0.0061   0.0140   0.0059   0.0060   0.0108   0.00   33.0
2024/05/18 02:18:00.000   3655333.8128   1403901.0434   5018037.9910   1  10   0.0110   0.0062   0.0140   0.0059   0.0057   0.0108   0.00   34.3
2024/05/18 02:18:30.000   3655333.8141   1403901.0449   5018037.9864   1  10   0.0109   0.0060   0.0139   0.0060   0.0061   0.0107   0.00   36.4
2024/05/18 02:19:00.000   3655333.8193   1403901.0443   5018037.9924   1  10   0.0110   0.0057   0.0139   0.0061   0.0059   0.0107   0.00   38.8
2024/05/18 02:19:30.000   3655333.8177   1403901.0449   5018037.9946   1  10   0.0109   0.0060   0.0138   0.0061   0.0060   0.0106   0.00   40.9
2024/05/18 02:20:00.000   3655333.8198   1403901.0449   5018037.9923   1  10   0.0109   0.0061   0.0138   0.0059   0.0059   0.0107   0.00   43.8
2024/05/18 02:20:30.000   3655333.8188   1403901.0447   5018037.9944   1  10   0.0109   0.0056   0.0137   0.0061   0.0060   0.0106   0.00   47.9
2024/05/18 02:21:00.000   3655333.8200   1403901.0424   5018037.9950   1  10   0.0109   0.0061   0.0137   0.0060   0.0059   0.0105   0.00   52.0
2024/05/18 02:21:30.000   3655333.8143   1403901.0420   5018037.9900   1  10   0.0109   0.0064   0.0136   0.0058   0.0056   0.0106   0.00   54.3
2024/05/18 02:22:00.000   3655333.8159   1403901.0471   5018037.9883   1  10   0.0108   0.0060   0.0136   0.0060   0.0058   0.0105   0.00   58.1
2024/05/18 02:22:30.000   3655333.8082   1403901.0443   5018037.9846   1  10   0.0109   0.0062   0.0135   0.0060   0.0057   0.0104   0.00   62.1
2024/05/18 02:23:00.000   3655333.8121   1403901.0459   5018037.9833   1  10   0.0109   0.0061   0.0134   0.0059   0.0057   0.0104   0.00   65.2
2024/05/18 02:23:30.000   3655333.8175   1403901.0455   5018037.9910   1  10   0.0108   0.0061   0.0134   0.0060   0.0057   0.0104   0.00   68.6
2024/05/18 02:24:00.000   3655333.8051   1403901.0380   5018037.9817   1  10   0.0108   0.0061   0.0134   0.0060   0.0056   0.0103   0.00   72.2
2024/05/18 02:24:30.000   3655333.8016   1403901.0413   5018037.9790   1  10   0.0108   0.0060   0.0133   0.0060   0.0057   0.0103   0.00   74.5
2024/05/18 02:25:00.000   3655333.8138   1403901.0444   5018037.9897   1  10   0.0108   0.0063   0.0133   0.0059   0.0054   0.0102   0.00   76.3
2024/05/18 02:25:30.000   3655333.8056   1403901.0436   5018037.9807   1  10   0.0107   0.0062   0.0132   0.0060   0.0056   0.0102   0.00   78.6
2024/05/18 02:26:00.000   3655333.8071   1403901.0397   5018037.9812   1  10   0.0107   0.0061   0.0132   0.0060   0.0055   0.0102   0.00   80.9
2024/05/18 02:26:30.000   3655333.8114   1403901.0419   5018037.9871   1  10   0.0108   0.0063   0.0131   0.0060   0.0055   0.0102   0.00   84.1
2024/05/18 02:27:00.000   3655333.8092   1403901.0429   5018037.9828   1  10   0.0107   0.0061   0.0131   0.0059   0.0056   0.0101   0.00   88.3
2024/05/18 02:27:30.000   3655333.8145   1403901.0439   5018037.9950   1  10   0.0107   0.0063   0.0130   0.0060   0.0054   0.0100   0.00   91.6
2024/05/18 02:28:00.000   3655333.8077   1403901.0419   5018037.9852   1  10   0.0108   0.0065   0.0129   0.0057   0.0054   0.0100   0.00   92.7
2024/05/18 02:28:30.000   3655333.8192   1403901.0470   5018037.9954   1  10   0.0107   0.0064   0.0129   0.0060   0.0054   0.0100   0.00   96.5
2024/05/18 02:29:00.000   3655333.8191   1403901.0486   5018037.9929   1  10   0.0107   0.0063   0.0129   0.0060   0.0054   0.0100   0.00   98.7
2024/05/18 02:29:30.000   3655333.8154   1403901.0440   5018037.9932   1  10   0.0107   0.0064   0.0128   0.0060   0.0052   0.0099   0.00  102.8
2024/05/18 02:30:00.000   3655333.8187   1403901.0489   5018037.9970   1  10   0.0107   0.0061   0.0127   0.0061   0.0054   0.0099   0.00  107.7
2024/05/18 02:30:30.000   3655333.8172   1403901.0471   5018037.9983   1  10   0.0106   0.0061   0.0126   0.0063   0.0054   0.0098   0.00  113.9
2024/05/18 02:31:00.000   3655333.8144   1403901.0461   5018037.9973   1  10   0.0106   0.0062   0.0127   0.0061   0.0053   0.0097   0.00  118.8
2024/05/18 02:31:30.000   3655333.8019   1403901.0418   5018037.9803   1  10   0.0106   0.0065   0.0126   0.0060   0.0053   0.0097   0.00  122.1
2024/05/18 02:32:00.000   3655333.8113   1403901.0456   5018037.9896   1  10   0.0106   0.0062   0.0125   0.0062   0.0053   0.0097   0.00  122.7
2024/05/18 02:32:30.000   3655333.8000   1403901.0375   5018037.9854   1  10   0.0106   0.0064   0.0125   0.0059   0.0052   0.0097   0.00  126.3
2024/05/18 02:33:00.000   3655333.8081   1403901.0390   5018037.9961   1  10   0.0105   0.0065   0.0125   0.0062   0.0052   0.0095   0.00  129.2
2024/05/18 02:33:30.000   3655333.8097   1403901.0437   5018037.9888   1  10   0.0106   0.0064   0.0123   0.0061   0.0053   0.0096   0.00  131.8
2024/05/18 02:34:00.000   3655333.7997   1403901.0397   5018037.9790   1  10   0.0106   0.0065   0.0124   0.0060   0.0049   0.0096   0.00  134.1
2024/05/18 02:34:30.000   3655333.8091   1403901.0408   5018037.9860   1  10   0.0106   0.0065   0.0122   0.0060   0.0052   0.0095   0.00  134.2
2024/05/18 02:35:00.000   3655333.8103   1403901.0442   5018037.9864   1  10   0.0105   0.0065   0.0123   0.0060   0.0051   0.0095   0.00  137.7
2024/05/18 02:35:30.000   3655333.8135   1403901.0454   5018037.9889   1   9   0.0114   0.0076   0.0128   0.0073   0.0063   0.0103   0.00  213.5
2024/05/18 02:36:00.000   3655333.8206   1403901.0488   5018037.9932   1   9   0.0112   0.0076   0.0128   0.0073   0.0062   0.0103   0.00  212.7
2024/05/18 02:36:30.000   3655333.8146   1403901.0447   5018037.9910   1   9   0.0113   0.0074   0.0128   0.0073   0.0063   0.0101   0.00  219.3
2024/05/18 02:37:00.000   3655333.8213   1403901.0475   5018038.0024   1   9   0.0113   0.0076   0.0127   0.0073   0.0062   0.0101   0.00  217.2
2024/05/18 02:37:30.000   3655333.8217   1403901.0489   5018038.0008   1   9   0.0112   0.0076   0.0126   0.0072   0.0061   0.0101   0.00  215.4
2024/05/18 02:38:00.000   3655333.8115   1403901.0442   5018037.9872   1   9   0.0112   0.0074   0.0126   0.0073   0.0062   0.0101   0.00  214.5
2024/05/18 02:38:30.000   3655333.8159   1403901.0452   5018037.9899   1   9   0.0112   0.0074   0.0125   0.0074   0.0061   0.0100   0.00  211.8
2024/05/18 02:39:00.000   3655333.8153   1403901.0438   5018037.9905   1   9   0.0112   0.0077   0.0125   0.0071   0.0061   0.0099   0.00  214.8
2024/05/18 02:39:30.000   3655333.8173   1403901.0459   5018037.9915   1   9   0.0111   0.0075   0.0124   0.0073   0.0062   0.0100   0.00  216.2
2024/05/18 02:40:00.000   3655333.8164   1403901.0462   5018037.9954   1   9   0.0111   0.0076   0.0124   0.0072   0.0060   0.0098   0.00  217.8
2024/05/18 02:40:30.000   3655333.8094   1403901.0437   5018037.9869   1   9   0.0111   0.0077   0.0123   0.0072   0.0060   0.0098   0.00  224.8
2024/05/18 02:41:00.000   3655333.8055   1403901.0448   5018037.9823   1   9   0.0111   0.0077   0.0123   0.0073   0.0058   0.0097   0.00  223.1
2024/05/18 02:41:30.000   3655333.8153   1403901.0471   5018037.9927   1   9   0.0111   0.0076   0.0122   0.0073   0.0059   0.0097   0.00  223.3
2024/05/18 02:42:00.000   3655333.8116   1403901.0401   5018037.9900   1   9   0.0111   0.0076   0.0122   0.0073   0.0058   0.0096   0.00  224.5
2024/05/18 02:42:30.000   3655333.8174   1403901.0409   5018037.9934   1   9   0.0111   0.0077   0.0122   0.0073   0.0057   0.0096   0.00  233.4
2024/05/18 02:43:00.000   3655333.8145   1403901.0404   5018037.9887   1   9   0.0110   0.0078   0.0122   0.0073   0.0058   0.0096   0.00  247.9
2024/05/18 02:43:30.000   3655333.8158   1403901.0397   5018037.9851   1   9   0.0110   0.0077   0.0121   0.0073   0.0059   0.0095   0.00  258.3
2024/05/18 02:44:00.000   3655333.8228   1403901.0450   5018037.9872   1   9   0.0110   0.0078   0.0121   0.0073   0.0057   0.0095   0.00  262.0
2024/05/18 02:44:30.000   3655333.8199   1403901.0441   5018037.9838   1   9   0.0110   0.0077   0.0121   0.0074   0.0057   0.0094   0.00  256.5
2024/05/18 02:45:00.000   3655333.8209   1403901.0463   5018037.9857   1   9   0.0110   0.0078   0.0119   0.0073   0.0056   0.0094   0.00  249.7
2024/05/18 02:45:30.000   3655333.8174   1403901.0409   5018037.9790   1   9   0.0110   0.0077   0.0119   0.0074   0.0058   0.0093   0.00  245.8
2024/05/18 02:46:00.000   3655333.8204   1403901.0429   5018037.9790   1   9   0.0110   0.0078   0.0120   0.0074   0.0056   0.0093   0.00  243.1
2024/05/18 02:46:30.000   3655333.8200   1403901.0421   5018037.9824   1   9   0.0110   0.0079   0.0119   0.0073   0.0055   0.0092   0.00  242.4
2024/05/18 02:47:00.000   3655333.8201   1403901.0401   5018037.9793   1   9   0.0110   0.0079   0.0119   0.0073   0.0054   0.0092   0.00  249.8
2024/05/18 02:47:30.000   3655333.8124   1403901.0422   5018037.9781   1   9   0.0110   0.0078   0.0119   0.0074   0.0055   0.0092   0.00  253.0
2024/05/18 02:48:00.000   3655333.8158   1403901.0427   5018037.9772   1   9   0.0110   0.0080   0.0118   0.0073   0.0054   0.0091   0.00  266.8
2024/05/18 02:48:30.000   3655333.8081   1403901.0386   5018037.9739   1   9   0.0109   0.0079   0.0118   0.0074   0.0052   0.0091   0.00  277.6
2024/05/18 02:49:00.000   3655333.8083   1403901.0440   5018037.9756   1   9   0.0109   0.0080   0.0117   0.0075   0.0052   0.0090   0.00  276.6
2024/05/18 02:49:30.000   3655333.8059   1403901.0407   5018037.9724   1   8   0.0122   0.0082   0.0125   0.0078   0.0056   0.0101   0.00  268.5
2024/05/18 02:50:00.000   3655333.8156   1403901.0430   5018037.9816   1   8   0.0122   0.0082   0.0123   0.0077   0.0057   0.0101   0.00  276.2
2024/05/18 02:50:30.000   3655333.8160   1403901.0394   5018037.9857   1   8   0.0121   0.0082   0.0123   0.0079   0.0056   0.0100   0.00  277.8
2024/05/18 02:51:00.000   3655333.8168   1403901.0411   5018037.9835   1   7   0.0164   0.0120   0.0137   0.0128   0.0093   0.0129   0.00  576.6
2024/05/18 02:51:30.000   3655333.8100   1403901.0341   5018037.9730   1   7   0.0164   0.0121   0.0136   0.0127   0.0092   0.0128   0.00  559.6
2024/05/18 02:52:00.000   3655333.8040   1403901.0338   5018037.9760   1   7   0.0162   0.0121   0.0135   0.0126   0.0091   0.0127   0.00  539.8
2024/05/18 02:52:30.000   3655333.8043   1403901.0323   5018037.9729   1   7   0.0162   0.0121   0.0135   0.0126   0.0090   0.0125   0.00  509.7
2024/05/18 02:53:00.000   3655333.8060   1403901.0369   5018037.9725   1   7   0.0161   0.0121   0.0134   0.0126   0.0090   0.0124   0.00  508.8
2024/05/18 02:53:30.000   3655333.7994   1403901.0312   5018037.9683   1   7   0.0160   0.0122   0.0133   0.0126   0.0088   0.0123   0.00  493.8
2024/05/18 02:54:00.000   3655333.8013   1403901.0310   5018037.9676   1   7   0.0160   0.0122   0.0133   0.0125   0.0087   0.0122   0.00  507.4
2024/05/18 02:54:30.000   3655333.7997   1403901.0313   5018037.9678   1   7   0.0159   0.0122   0.0131   0.0125   0.0088   0.0121   0.00  529.3
2024/05/18 02:55:00.000   3655333.7955   1403901.0283   5018037.9696   1   7   0.0158   0.0123   0.0131   0.0125   0.0085   0.0120   0.00  523.9
2024/05/18 02:55:30.000   3655333.8005   1403901.0326   5018037.9742   1   7   0.0158   0.0122   0.0130   0.0125   0.0086   0.0119   0.00  520.1
2024/05/18 02:56:00.000   3655333.7996   1403901.0330   5018037.9765   1   7   0.0157   0.0123   0.0130   0.0125   0.0084   0.0118   0.00  501.8
2024/05/18 02:56:30.000   3655333.8113   1403901.0324   5018037.9886   1   7   0.0157   0.0123   0.0129   0.0124   0.0083   0.0117   0.00  485.4
2024/05/18 02:57:00.000   3655333.8124   1403901.0318   5018037.9832   1   7   0.0156   0.0124   0.0129   0.0124   0.0083   0.0116   0.00  469.5
2024/05/18 02:57:30.000   3655333.8013   1403901.0294   5018037.9827   1   7   0.0155   0.0124   0.0128   0.0125   0.0081   0.0115   0.00  472.6
2024/05/18 02:58:00.000   3655333.8054   1403901.0349   5018037.9815   1   7   0.0154   0.0124   0.0128   0.0125   0.0081   0.0114   0.00  460.9
2024/05/18 02:58:30.000   3655333.8052   1403901.0350   5018037.9812   1   7   0.0154   0.0124   0.0127   0.0124   0.0080   0.0113   0.00  443.1
2024/05/18 02:59:00.000   3655333.8113   1403901.0353   5018037.9888   1   7   0.0153   0.0124   0.0127   0.0124   0.0079   0.0112   0.00  423.8
2024/05/18 02:59:30.000   3655333.8193   1403901.0387   5018037.9876   1   7   0.0153   0.0125   0.0126   0.0124   0.0079   0.0111   0.00  404.5
2024/05/18 03:00:00.000   3655333.8267   1403901.0426   5018037.9917   1   7   0.0152   0.0125   0.0127   0.0124   0.0078   0.0110   0.00  388.9
2024/05/18 03:00:30.000   3655333.8203   1403901.0364   5018037.9902   1   7   0.0152   0.0125   0.0125   0.0124   0.0077   0.0109   0.00  374.5
2024/05/18 03:01:00.000   3655333.8224   1403901.0415   5018037.9934   1   7   0.0151   0.0126   0.0126   0.0124   0.0076   0.0108   0.00  371.6
2024/05/18 03:01:30.000   3655333.8317   1403901.0480   5018037.9915   1   7   0.0150   0.0126   0.0125   0.0124   0.0075   0.0107   0.00  388.5
2024/05/18 03:02:00.000   3655333.8153   1403901.0421   5018037.9852   1   7   0.0150   0.0126   0.0125   0.0124   0.0074   0.0106   0.00  400.6
2024/05/18 03:02:30.000   3655333.8198   1403901.0428   5018037.9877   1   7   0.0150   0.0127   0.0124   0.0123   0.0073   0.0105   0.00  405.5
2024/05/18 03:03:00.000   3655333.8063   1403901.0320   5018037.9881   1   6   0.0149   0.0130   0.0139   0.0125   0.0058   0.0101   0.00  323.1
2024/05/18 03:03:30.000   3655333.8097   1403901.0390   5018037.9851   1   6   0.0149   0.0131   0.0139   0.0125   0.0056   0.0100   0.00  336.3
2024/05/18 03:04:00.000   3655333.8073   1403901.0369   5018037.9896   1   6   0.0148   0.0131   0.0139   0.0125   0.0055   0.0099   0.00  329.5
2024/05/18 03:04:30.000   3655333.8072   1403901.0372   5018037.9789   1   6   0.0147   0.0132   0.0139   0.0125   0.0055   0.0098   0.00  331.9
2024/05/18 03:05:00.000   3655333.8124   1403901.0388   5018037.9808   1   6   0.0147   0.0132   0.0139   0.0124   0.0053   0.0097   0.00  337.9
2024/05/18 03:05:30.000   3655333.8099   1403901.0364   5018037.9839   1   6   0.0146   0.0132   0.0138   0.0124   0.0051   0.0096   0.00  337.8
2024/05/18 03:06:00.000   3655333.8068   1403901.0303   5018037.9787   1   6   0.0146   0.0133   0.0138   0.0124   0.0049   0.0095   0.00  338.3
2024/05/18 03:06:30.000   3655333.8010   1403901.0277   5018037.9767   1   6   0.0146   0.0133   0.0138   0.0125   0.0048   0.0093   0.00  344.6
2024/05/18 03:07:00.000   3655333.8195   1403901.0417   5018037.9832   1   6   0.0144   0.0134   0.0138   0.0125   0.0046   0.0092   0.00  344.7
2024/05/18 03:07:30.000   3655333.8161   1403901.0444   5018037.9769   1   6   0.0144   0.0134   0.0138   0.0125   0.0045   0.0091   0.00  356.7
2024/05/18 03:08:00.000   3655333.8270   1403901.0526   5018037.9787   1   6   0.0144   0.0134   0.0138   0.0124   0.0044   0.0090   0.00  365.8
2024/05/18 03:08:30.000   3655333.8302   1403901.0536   5018037.9795   1   6   0.0144   0.0135   0.0138   0.0125   0.0043   0.0090   0.00  396.2
2024/05/18 03:09:00.000   3655333.8336   1403901.0620   5018037.9785   1   6   0.0143   0.0135   0.0138   0.0124   0.0041   0.0088   0.00  420.9
2024/05/18 03:09:30.000   3655333.8142   1403901.0456   5018037.9754   1   6   0.0143   0.0135   0.0138   0.0124   0.0038   0.0087   0.00  449.2
2024/05/18 03:10:00.000   3655333.8191   1403901.0453   5018037.9781   1   6   0.0144   0.0136   0.0138   0.0124   0.0037   0.0086   0.00  482.4
2024/05/18 03:10:30.000   3655333.8291   1403901.0495   5018037.9825   1   6   0.0143   0.0136   0.0138   0.0124   0.0034   0.0085   0.00  476.9
2024/05/18 03:11:00.000   3655333.8266   1403901.0460   5018037.9842   1   6   0.0142   0.0136   0.0138   0.0124   0.0033   0.0085   0.00  495.5
2024/05/18 03:11:30.000   3655333.8213   1403901.0454   5018037.9867   1   6   0.0142   0.0137   0.0139   0.0124   0.0032   0.0084   0.00  493.8
2024/05/18 03:12:00.000   3655333.8217   1403901.0455   5018037.9887   1   6   0.0141   0.0137   0.0139   0.0124   0.0028   0.0083   0.00  474.9
2024/05/18 03:12:30.000   3655333.8228   1403901.0439   5018037.9971   1   6   0.0141   0.0137   0.0139   0.0124   0.0026   0.0082   0.00  445.0
2024/05/18 03:13:00.000   3655333.8086   1403901.0366   5018037.9850   1   6   0.0140   0.0138   0.0139   0.0124   0.0023   0.0081   0.00  414.7
2024/05/18 03:13:30.000   3655333.8100   1403901.0403   5018037.9814   1   6   0.0141   0.0138   0.0139   0.0124   0.0019   0.0080   0.00  383.2
2024/05/18 03:14:00.000   3655333.8120   1403901.0353   5018037.9849   1   6   0.0140   0.0139   0.0140   0.0124   0.0016   0.0079   0.00  375.8
2024/05/18 03:14:30.000   3655333.8111   1403901.0367   5018037.9769   1   6   0.0139   0.0139   0.0140   0.0124   0.0012   0.0078   0.00  360.1
2024/05/18 03:15:00.000   3655333.8020   1403901.0255   5018037.9836   1   6   0.0138   0.0139   0.0140   0.0124  -0.0003   0.0077   0.00  346.1
2024/05/18 03:15:30.000   3655333.7985   1403901.0267   5018037.9856   1   6   0.0138   0.0139   0.0141   0.0124  -0.0011   0.0076   0.00  335.9
2024/05/18 03:16:00.000   3655333.8030   1403901.0281   5018037.9790   1   6   0.0138   0.0140   0.0141   0.0124  -0.0016   0.0075   0.00  329.6
2024/05/18 03:16:30.000   3655333.8047   1403901.0340   5018037.9774   1   6   0.0138   0.0140   0.0141   0.0124  -0.0020   0.0074   0.00  325.5
2024/05/18 03:17:00.000   3655333.8056   1403901.0285   5018037.9900   2   7   0.0141   0.0147   0.0144   0.0124  -0.0029   0.0076   0.00    2.5
2024/05/18 03:17:30.000   3655333.8208   1403901.0436   5018037.9818   1   7   0.0098   0.0091   0.0142   0.0071  -0.0026   0.0072   0.00    4.5
2024/05/18 03:18:00.000   3655333.8209   1403901.0449   5018037.9837   1   8   0.0096   0.0085   0.0136   0.0065  -0.0046   0.0064   0.00    4.8
2024/05/18 03:18:30.000   3655333.8233   1403901.0537   5018037.9820   1   8   0.0093   0.0085   0.0136   0.0065  -0.0045   0.0064   0.00    8.8
2024/05/18 03:19:00.000   3655333.8162   1403901.0418   5018037.9916   1   8   0.0095   0.0085   0.0136   0.0063  -0.0047   0.0064   0.00   10.4
2024/05/18 03:19:30.000   3655333.8144   1403901.0386   5018037.9851   1   8   0.0093   0.0084   0.0137   0.0064  -0.0047   0.0063   0.00   13.5
2024/05/18 03:20:00.000   3655333.8172   1403901.0465   5018037.9822   1   8   0.0093   0.0085   0.0137   0.0064  -0.0047   0.0063   0.00   16.1
2024/05/18 03:20:30.000   3655333.8184   1403901.0420   5018037.9829   1   8   0.0094   0.0084   0.0137   0.0062  -0.0048   0.0063   0.00   18.6
2024/05/18 03:21:00.000   3655333.8159   1403901.0368   5018037.9944   1   8   0.0092   0.0084   0.0138   0.0062  -0.0048   0.0063   0.00   20.7
2024/05/18 03:21:30.000   3655333.8153   1403901.0387   5018037.9939   1   8   0.0092   0.0083   0.0138   0.0062  -0.0049   0.0063   0.00   23.1
