% program   : RTKPOST ver.2.4.3 b34
% inp file  : WUTR00POL_R_20241390000_01D_30S_MO.rnx
% inp file  : JOZ21390.24o
% inp file  : JOZ21390.24n
% obs start : 2024/05/18 00:00:00.0 GPST (week2314 518400.0s)
% obs end   : 2024/05/18 23:59:30.0 GPST (week2314 604770.0s)
% pos mode  : Kinematic
% freqs     : L1+2
% solution  : Forward
% elev mask : 15.0 deg
% dynamics  : off
% tidecorr  : off
% ionos opt : Broadcast
% tropo opt : Saastamoinen
% ephemeris : Broadcast
% navi sys  : GPS
% amb res   : Continuous
% val thres : 2.5
% antenna1  :                       ( 0.0000  0.0000  0.1010)
% antenna2  :                       ( 0.0000  0.0000  0.0000)
% ref pos   :  3664880.9095   1409190.3838   5009618.2874
%
% (x/y/z-ecef=WGS84,Q=1:fix,2:float,3:sbas,4:dgps,5:single,6:ppp,ns=# of satellites)
%  GPST                      x-ecef(m)      y-ecef(m)      z-ecef(m)   Q  ns   sdx(m)   sdy(m)   sdz(m)  sdxy(m)  sdyz(m)  sdzx(m) age(s)  ratio
2024/05/18 00:00:00.000   3655335.2105   1403901.0055   5018039.3756   2   8   1.1580   0.6265   1.2637   0.5497   0.4747   0.9638   0.00    1.3
2024/05/18 00:00:30.000   3655334.8204   1403900.9882   5018038.6058   2   8   0.7810   0.4413   0.7892   0.3723   0.3045   0.6004   0.00    1.1
2024/05/18 00:01:00.000   3655334.3294   1403900.8430   5018038.3074   2   8   0.6033   0.3570   0.5493   0.2881   0.2210   0.4171   0.00    1.2
2024/05/18 00:01:30.000   3655334.1318   1403900.9423   5018038.0515   2   8   0.4969   0.3056   0.4048   0.2365   0.1716   0.3067   0.00    1.0
2024/05/18 00:02:00.000   3655334.1198   1403900.9949   5018038.0154   2   8   0.4254   0.2698   0.3113   0.2004   0.1399   0.2354   0.00    1.0
2024/05/18 00:02:30.000   3655334.0647   1403901.0292   5018037.8280   2   8   0.3733   0.2427   0.2478   0.1729   0.1183   0.1868   0.00    1.1
2024/05/18 00:03:00.000   3655334.0447   1403901.0332   5018037.7815   2   8   0.3330   0.2211   0.2027   0.1507   0.1027   0.1523   0.00    1.2
2024/05/18 00:03:30.000   3655333.9712   1403901.0426   5018037.9438   2   8   0.3005   0.2033   0.1697   0.1320   0.0911   0.1268   0.00    1.2
2024/05/18 00:04:00.000   3655333.9423   1403901.0690   5018037.8869   2   8   0.2735   0.1883   0.1446   0.1158   0.0820   0.1073   0.00    1.1
2024/05/18 00:04:30.000   3655333.8864   1403901.0530   5018037.8359   2   8   0.2506   0.1753   0.1252   0.1015   0.0747   0.0921   0.00    1.2
2024/05/18 00:05:00.000   3655333.8367   1403901.1145   5018037.7827   2   8   0.2309   0.1640   0.1098   0.0887   0.0686   0.0799   0.00    1.8
2024/05/18 00:05:30.000   3655333.8792   1403901.1357   5018037.7955   2   8   0.2137   0.1541   0.0974   0.0771   0.0636   0.0700   0.00    2.3
2024/05/18 00:06:00.000   3655333.8654   1403901.1296   5018037.8057   2   8   0.1986   0.1452   0.0872   0.0663   0.0592   0.0617   0.00    2.2
2024/05/18 00:06:30.000   3655333.8884   1403901.1203   5018037.8184   2   8   0.1852   0.1373   0.0787   0.0563   0.0555   0.0548   0.00    2.0
2024/05/18 00:07:00.000   3655333.8837   1403901.0889   5018037.8247   2   7   0.1742   0.1308   0.0724   0.0445   0.0512   0.0504   0.00    1.6
2024/05/18 00:07:30.000   3655333.9034   1403901.0794   5018037.8143   2   7   0.1642   0.1250   0.0663   0.0319   0.0481   0.0456   0.00    1.5
2024/05/18 00:08:00.000   3655333.9243   1403901.0931   5018037.8106   2   7   0.1551   0.1199   0.0612   0.0158   0.0454   0.0413   0.00    1.6
2024/05/18 00:08:30.000   3655333.9234   1403901.1049   5018037.8108   2   7   0.1469   0.1151   0.0567  -0.0191   0.0430   0.0376   0.00    1.6
2024/05/18 00:09:00.000   3655333.9654   1403901.1161   5018037.8306   2   7   0.1395   0.1108   0.0527  -0.0293   0.0409   0.0342   0.00    1.4
2024/05/18 00:09:30.000   3655333.9321   1403901.0935   5018037.8615   2   7   0.1328   0.1069   0.0493  -0.0354   0.0390   0.0313   0.00    1.3
2024/05/18 00:10:00.000   3655333.9431   1403901.1010   5018037.8720   2   7   0.1267   0.1033   0.0463  -0.0396   0.0373   0.0286   0.00    1.2
2024/05/18 00:10:30.000   3655333.9484   1403901.0796   5018037.8719   2   7   0.1211   0.1000   0.0436  -0.0426   0.0357   0.0262   0.00    1.1
2024/05/18 00:11:00.000   3655333.9679   1403901.0876   5018037.8679   2   7   0.1160   0.0969   0.0412  -0.0449   0.0343   0.0241   0.00    1.1
2024/05/18 00:11:30.000   3655333.9633   1403901.0915   5018037.8801   2   7   0.1113   0.0940   0.0390  -0.0465   0.0330   0.0221   0.00    1.0
2024/05/18 00:12:00.000   3655333.9628   1403901.0907   5018037.8857   2   7   0.1070   0.0914   0.0371  -0.0477   0.0318   0.0204   0.00    1.1
2024/05/18 00:12:30.000   3655333.9693   1403901.1118   5018037.8915   2   7   0.1030   0.0889   0.0354  -0.0486   0.0307   0.0187   0.00    1.2
2024/05/18 00:13:00.000   3655333.9844   1403901.1360   5018037.8752   2   7   0.0993   0.0866   0.0338  -0.0493   0.0297   0.0172   0.00    1.2
2024/05/18 00:13:30.000   3655333.9936   1403901.1407   5018037.8788   2   7   0.0959   0.0844   0.0324  -0.0497   0.0288   0.0159   0.00    1.2
2024/05/18 00:14:00.000   3655333.9989   1403901.1424   5018037.8710   2   7   0.0927   0.0824   0.0311  -0.0500   0.0279   0.0146   0.00    1.3
2024/05/18 00:14:30.000   3655334.0044   1403901.1487   5018037.8690   2   7   0.0897   0.0804   0.0300  -0.0501   0.0271   0.0134   0.00    1.3
2024/05/18 00:15:00.000   3655334.0202   1403901.1459   5018037.8737   2   7   0.0869   0.0786   0.0289  -0.0501   0.0263   0.0124   0.00    1.3
2024/05/18 00:15:30.000   3655334.0319   1403901.1417   5018037.8825   2   7   0.0843   0.0769   0.0279  -0.0500   0.0256   0.0113   0.00    1.3
2024/05/18 00:16:00.000   3655334.0361   1403901.1477   5018037.8888   2   7   0.0819   0.0752   0.0270  -0.0498   0.0249   0.0104   0.00    1.4
2024/05/18 00:16:30.000   3655334.0452   1403901.1568   5018037.8750   2   7   0.0796   0.0737   0.0262  -0.0496   0.0243   0.0095   0.00    1.4
2024/05/18 00:17:00.000   3655334.0631   1403901.1454   5018037.8762   2   7   0.0774   0.0722   0.0254  -0.0493   0.0237   0.0088   0.00    1.4
2024/05/18 00:17:30.000   3655334.0785   1403901.1459   5018037.8798   2   7   0.0754   0.0708   0.0247  -0.0490   0.0232   0.0080   0.00    1.4
2024/05/18 00:18:00.000   3655334.1007   1403901.1494   5018037.8757   2   7   0.0735   0.0694   0.0241  -0.0487   0.0226   0.0073   0.00    1.5
2024/05/18 00:18:30.000   3655334.1131   1403901.1393   5018037.8730   2   7   0.0717   0.0682   0.0235  -0.0483   0.0221   0.0066   0.00    1.5
2024/05/18 00:19:00.000   3655334.1153   1403901.1404   5018037.8788   2   7   0.0699   0.0669   0.0230  -0.0479   0.0216   0.0059   0.00    1.6
2024/05/18 00:19:30.000   3655334.1343   1403901.1359   5018037.8822   2   7   0.0683   0.0657   0.0225  -0.0475   0.0211   0.0053   0.00    1.6
2024/05/18 00:20:00.000   3655334.1580   1403901.1296   5018037.8830   2   7   0.0668   0.0646   0.0220  -0.0471   0.0207   0.0047   0.00    1.7
2024/05/18 00:20:30.000   3655334.1711   1403901.1271   5018037.8939   2   7   0.0653   0.0635   0.0215  -0.0466   0.0203   0.0042   0.00    1.8
2024/05/18 00:21:00.000   3655334.1809   1403901.1331   5018037.8989   2   7   0.0639   0.0625   0.0211  -0.0462   0.0199   0.0036   0.00    1.9
2024/05/18 00:21:30.000   3655334.1960   1403901.1448   5018037.8948   2   7   0.0626   0.0615   0.0207  -0.0457   0.0195   0.0031   0.00    1.9
2024/05/18 00:22:00.000   3655334.1832   1403901.1379   5018037.8925   2   7   0.0613   0.0605   0.0204  -0.0452   0.0191   0.0025   0.00    2.0
2024/05/18 00:22:30.000   3655334.1797   1403901.1398   5018037.8890   2   7   0.0601   0.0595   0.0200  -0.0448   0.0188   0.0018   0.00    2.1
2024/05/18 00:23:00.000   3655334.1776   1403901.1393   5018037.8912   2   7   0.0589   0.0586   0.0197  -0.0443   0.0184   0.0012   0.00    2.2
2024/05/18 00:23:30.000   3655334.1796   1403901.1339   5018037.8936   2   7   0.0578   0.0578   0.0195  -0.0439   0.0181  -0.0005   0.00    2.3
2024/05/18 00:24:00.000   3655334.1814   1403901.1306   5018037.8860   2   7   0.0567   0.0569   0.0192  -0.0434   0.0178  -0.0013   0.00    2.4
2024/05/18 00:24:30.000   3655334.1711   1403901.1240   5018037.8897   2   7   0.0557   0.0561   0.0189  -0.0430   0.0175  -0.0017   0.00    2.5
2024/05/18 00:25:00.000   3655334.1672   1403901.1204   5018037.8921   2   7   0.0547   0.0553   0.0187  -0.0425   0.0172  -0.0020   0.00    2.5
2024/05/18 00:25:30.000   3655334.1744   1403901.1289   5018037.8926   2   7   0.0537   0.0546   0.0184  -0.0420   0.0169  -0.0021   0.00    2.5
2024/05/18 00:26:00.000   3655334.1706   1403901.1277   5018037.8930   2   7   0.0528   0.0538   0.0183  -0.0416   0.0167  -0.0023   0.00    2.5
2024/05/18 00:26:30.000   3655334.1671   1403901.1209   5018037.8933   2   7   0.0520   0.0531   0.0180  -0.0411   0.0164  -0.0024   0.00    2.4
2024/05/18 00:27:00.000   3655334.1757   1403901.1212   5018037.8944   2   8   0.0511   0.0524   0.0179  -0.0407   0.0161  -0.0025   0.00    1.3
2024/05/18 00:27:30.000   3655334.1776   1403901.1161   5018037.8991   2   8   0.0503   0.0517   0.0169  -0.0402   0.0160  -0.0036   0.00    1.6
2024/05/18 00:28:00.000   3655334.1673   1403901.1038   5018037.9062   2   7   0.0496   0.0512   0.0175  -0.0397   0.0165  -0.0015   0.00    1.3
2024/05/18 00:28:30.000   3655334.1668   1403901.1122   5018037.9048   2   7   0.0492   0.0507   0.0171  -0.0395   0.0164  -0.0029   0.00    1.4
2024/05/18 00:29:00.000   3655334.1691   1403901.1147   5018037.9075   2   7   0.0489   0.0503   0.0169  -0.0394   0.0162  -0.0033   0.00    1.5
2024/05/18 00:29:30.000   3655334.1425   1403901.1050   5018037.9065   2   7   0.0485   0.0498   0.0166  -0.0393   0.0160  -0.0035   0.00    1.6
2024/05/18 00:30:00.000   3655334.1442   1403901.1024   5018037.9054   2   7   0.0482   0.0494   0.0164  -0.0391   0.0158  -0.0035   0.00    1.7
2024/05/18 00:30:30.000   3655334.1441   1403901.0972   5018037.9129   2   7   0.0479   0.0489   0.0162  -0.0390   0.0156  -0.0036   0.00    1.8
2024/05/18 00:31:00.000   3655334.1278   1403901.0918   5018037.9095   2   7   0.0476   0.0485   0.0160  -0.0388   0.0155  -0.0035   0.00    1.7
2024/05/18 00:31:30.000   3655334.1244   1403901.0890   5018037.9039   2   7   0.0473   0.0481   0.0158  -0.0387   0.0153  -0.0034   0.00    1.7
2024/05/18 00:32:00.000   3655334.1094   1403901.0847   5018037.9065   2   7   0.0470   0.0477   0.0157  -0.0385   0.0151  -0.0032   0.00    1.7
2024/05/18 00:32:30.000   3655334.1122   1403901.0913   5018037.9105   2   7   0.0466   0.0474   0.0155  -0.0383   0.0150  -0.0031   0.00    1.6
2024/05/18 00:33:00.000   3655334.0980   1403901.0849   5018037.9035   2   7   0.0463   0.0470   0.0154  -0.0382   0.0148  -0.0029   0.00    1.6
2024/05/18 00:33:30.000   3655334.1005   1403901.0849   5018037.9064   2   7   0.0460   0.0467   0.0153  -0.0380   0.0146  -0.0028   0.00    1.5
2024/05/18 00:34:00.000   3655334.0879   1403901.0834   5018037.9042   2   7   0.0457   0.0463   0.0151  -0.0378   0.0145  -0.0026   0.00    1.5
2024/05/18 00:34:30.000   3655334.0827   1403901.0836   5018037.9026   2   7   0.0453   0.0460   0.0150  -0.0376   0.0143  -0.0023   0.00    1.4
2024/05/18 00:35:00.000   3655334.0652   1403901.0694   5018037.9043   2   7   0.0450   0.0457   0.0149  -0.0374   0.0142  -0.0020   0.00    1.4
2024/05/18 00:35:30.000   3655334.0563   1403901.0792   5018037.9082   2   7   0.0446   0.0453   0.0148  -0.0372   0.0140  -0.0017   0.00    1.3
2024/05/18 00:36:00.000   3655334.0548   1403901.0855   5018037.9131   2   7   0.0443   0.0450   0.0147  -0.0370   0.0139  -0.0012   0.00    1.3
2024/05/18 00:36:30.000   3655334.0499   1403901.0866   5018037.9160   2   9   0.0439   0.0447   0.0146  -0.0367   0.0137  -0.0008   0.00    1.1
2024/05/18 00:37:00.000   3655334.0352   1403901.0747   5018037.9165   2   9   0.0429   0.0441   0.0142  -0.0369   0.0131  -0.0043   0.00    1.2
2024/05/18 00:37:30.000   3655334.0306   1403901.0858   5018037.9107   2   9   0.0423   0.0438   0.0139  -0.0368   0.0128  -0.0049   0.00    1.2
2024/05/18 00:38:00.000   3655334.0249   1403901.0892   5018037.9076   2   9   0.0418   0.0434   0.0138  -0.0366   0.0126  -0.0052   0.00    1.2
2024/05/18 00:38:30.000   3655334.0133   1403901.0893   5018037.9134   2   9   0.0413   0.0430   0.0137  -0.0364   0.0124  -0.0053   0.00    1.1
2024/05/18 00:39:00.000   3655334.0102   1403901.0918   5018037.9085   2   9   0.0408   0.0427   0.0136  -0.0361   0.0122  -0.0053   0.00    1.1
2024/05/18 00:39:30.000   3655333.9895   1403901.0870   5018037.9152   2   9   0.0403   0.0423   0.0135  -0.0359   0.0120  -0.0053   0.00    1.1
2024/05/18 00:40:00.000   3655333.9879   1403901.0947   5018037.9102   2   9   0.0399   0.0420   0.0135  -0.0356   0.0119  -0.0052   0.00    1.1
2024/05/18 00:40:30.000   3655333.9852   1403901.0894   5018037.9177   2   9   0.0394   0.0416   0.0134  -0.0353   0.0117  -0.0052   0.00    1.0
2024/05/18 00:41:00.000   3655333.9632   1403901.0811   5018037.9141   2   9   0.0389   0.0413   0.0133  -0.0350   0.0116  -0.0051   0.00    1.0
2024/05/18 00:41:30.000   3655333.9744   1403901.0916   5018037.9121   2   9   0.0384   0.0409   0.0132  -0.0347   0.0114  -0.0051   0.00    1.0
2024/05/18 00:42:00.000   3655333.9563   1403901.0886   5018037.9147   2   9   0.0379   0.0406   0.0132  -0.0344   0.0113  -0.0050   0.00    1.1
2024/05/18 00:42:30.000   3655333.9447   1403901.0875   5018037.9150   2   9   0.0374   0.0402   0.0132  -0.0340   0.0112  -0.0049   0.00    1.1
2024/05/18 00:43:00.000   3655333.9316   1403901.0949   5018037.9118   2   9   0.0369   0.0398   0.0131  -0.0336   0.0110  -0.0048   0.00    1.1
2024/05/18 00:43:30.000   3655333.9335   1403901.1104   5018037.9162   2   9   0.0367   0.0394   0.0135  -0.0332   0.0110  -0.0025   0.00    1.0
2024/05/18 00:44:00.000   3655333.9203   1403901.1067   5018037.9191   2   9   0.0362   0.0391   0.0132  -0.0330   0.0106  -0.0032   0.00    1.0
2024/05/18 00:44:30.000   3655333.9177   1403901.1068   5018037.9161   2   9   0.0358   0.0387   0.0131  -0.0327   0.0104  -0.0033   0.00    1.0
2024/05/18 00:45:00.000   3655333.9166   1403901.1137   5018037.9161   2   9   0.0353   0.0384   0.0130  -0.0323   0.0103  -0.0034   0.00    1.0
2024/05/18 00:45:30.000   3655333.9036   1403901.1169   5018037.9177   2   9   0.0349   0.0380   0.0130  -0.0320   0.0102  -0.0033   0.00    1.0
2024/05/18 00:46:00.000   3655333.8965   1403901.1163   5018037.9151   2   9   0.0344   0.0377   0.0129  -0.0317   0.0100  -0.0033   0.00    1.0
2024/05/18 00:46:30.000   3655333.8877   1403901.1184   5018037.9211   2   9   0.0340   0.0373   0.0129  -0.0314   0.0098  -0.0032   0.00    1.0
2024/05/18 00:47:00.000   3655333.8767   1403901.1132   5018037.9218   2   9   0.0335   0.0370   0.0128  -0.0310   0.0097  -0.0031   0.00    1.0
2024/05/18 00:47:30.000   3655333.8906   1403901.1259   5018037.9168   2   9   0.0331   0.0366   0.0128  -0.0307   0.0096  -0.0030   0.00    1.0
2024/05/18 00:48:00.000   3655333.8787   1403901.1183   5018037.9204   2   9   0.0326   0.0363   0.0128  -0.0303   0.0095  -0.0030   0.00    1.1
2024/05/18 00:48:30.000   3655333.8689   1403901.1178   5018037.9208   2   9   0.0322   0.0359   0.0128  -0.0299   0.0094  -0.0028   0.00    1.1
2024/05/18 00:49:00.000   3655333.8586   1403901.1099   5018037.9188   2   9   0.0317   0.0355   0.0127  -0.0296   0.0093  -0.0027   0.00    1.1
2024/05/18 00:49:30.000   3655333.8587   1403901.1030   5018037.9204   2   9   0.0313   0.0352   0.0128  -0.0291   0.0093  -0.0025   0.00    1.0
2024/05/18 00:50:00.000   3655333.8721   1403901.1122   5018037.9234   2   9   0.0308   0.0348   0.0127  -0.0288   0.0091  -0.0025   0.00    1.1
2024/05/18 00:50:30.000   3655333.8638   1403901.1064   5018037.9168   2   9   0.0303   0.0344   0.0127  -0.0284   0.0089  -0.0023   0.00    1.1
2024/05/18 00:51:00.000   3655333.8694   1403901.1190   5018037.9182   2   9   0.0298   0.0340   0.0127  -0.0280   0.0088  -0.0022   0.00    1.1
2024/05/18 00:51:30.000   3655333.8510   1403901.1024   5018037.9138   2   9   0.0294   0.0336   0.0127  -0.0276   0.0087  -0.0018   0.00    1.0
2024/05/18 00:52:00.000   3655333.8646   1403901.1144   5018037.9194   2   9   0.0290   0.0333   0.0127  -0.0271   0.0086  -0.0017   0.00    1.1
2024/05/18 00:52:30.000   3655333.8540   1403901.1049   5018037.9137   2   9   0.0285   0.0329   0.0127  -0.0267   0.0085  -0.0014   0.00    1.1
2024/05/18 00:53:00.000   3655333.8544   1403901.0994   5018037.9138   2   9   0.0280   0.0325   0.0127  -0.0263   0.0084  -0.0011   0.00    1.1
2024/05/18 00:53:30.000   3655333.8645   1403901.1056   5018037.9137   2   9   0.0276   0.0321   0.0127  -0.0259   0.0083   0.0005   0.00    1.1
2024/05/18 00:54:00.000   3655333.8606   1403901.0911   5018037.9131   2   9   0.0272   0.0317   0.0128  -0.0255   0.0082   0.0008   0.00    1.1
2024/05/18 00:54:30.000   3655333.8603   1403901.0799   5018037.9151   2   9   0.0267   0.0312   0.0127  -0.0251   0.0081   0.0011   0.00    1.1
2024/05/18 00:55:00.000   3655333.8620   1403901.0711   5018037.9166   2   9   0.0263   0.0309   0.0128  -0.0246   0.0079   0.0015   0.00    1.0
2024/05/18 00:55:30.000   3655333.8676   1403901.0662   5018037.9133   2   9   0.0258   0.0304   0.0128  -0.0242   0.0078   0.0018   0.00    1.0
2024/05/18 00:56:00.000   3655333.8781   1403901.0619   5018037.9084   2   9   0.0254   0.0300   0.0128  -0.0238   0.0078   0.0021   0.00    1.0
2024/05/18 00:56:30.000   3655333.8767   1403901.0529   5018037.9097   2   9   0.0250   0.0296   0.0128  -0.0234   0.0077   0.0023   0.00    1.0
2024/05/18 00:57:00.000   3655333.8762   1403901.0586   5018037.9138   2   9   0.0246   0.0292   0.0128  -0.0229   0.0076   0.0025   0.00    1.0
2024/05/18 00:57:30.000   3655333.8929   1403901.0661   5018037.9186   2   9   0.0242   0.0289   0.0128  -0.0225   0.0073   0.0025   0.00    1.0
2024/05/18 00:58:00.000   3655333.8938   1403901.0659   5018037.9203   2   9   0.0238   0.0284   0.0129  -0.0221   0.0074   0.0028   0.00    1.0
2024/05/18 00:58:30.000   3655333.8887   1403901.0708   5018037.9168   2   9   0.0233   0.0280   0.0129  -0.0217   0.0073   0.0030   0.00    1.0
2024/05/18 00:59:00.000   3655333.8736   1403901.0647   5018037.9395   2   8   0.0230   0.0276   0.0165  -0.0213   0.0076   0.0024   0.00    1.1
2024/05/18 00:59:30.000   3655333.8855   1403901.0567   5018037.9435   2   8   0.0227   0.0272   0.0165  -0.0209   0.0075   0.0029   0.00    1.1
2024/05/18 01:00:00.000   3655333.8946   1403901.0534   5018037.9415   2   8   0.0224   0.0269   0.0165  -0.0205   0.0074   0.0034   0.00    1.1
2024/05/18 01:00:30.000   3655333.9040   1403901.0431   5018037.9508   2   8   0.0221   0.0265   0.0165  -0.0202   0.0073   0.0037   0.00    1.1
2024/05/18 01:01:00.000   3655333.9138   1403901.0392   5018037.9457   2   8   0.0218   0.0261   0.0165  -0.0198   0.0072   0.0041   0.00    1.2
2024/05/18 01:01:30.000   3655333.9263   1403901.0310   5018037.9541   2   8   0.0215   0.0258   0.0166  -0.0194   0.0071   0.0043   0.00    1.2
2024/05/18 01:02:00.000   3655333.9484   1403901.0321   5018037.9509   2   8   0.0212   0.0253   0.0166  -0.0191   0.0070   0.0046   0.00    1.2
2024/05/18 01:02:30.000   3655333.9546   1403901.0327   5018037.9619   2   8   0.0209   0.0249   0.0166  -0.0187   0.0069   0.0048   0.00    1.2
2024/05/18 01:03:00.000   3655333.9404   1403901.0050   5018037.9634   2   8   0.0206   0.0246   0.0166  -0.0183   0.0069   0.0050   0.00    1.2
2024/05/18 01:03:30.000   3655333.9629   1403901.0088   5018037.9717   2   8   0.0203   0.0243   0.0166  -0.0179   0.0068   0.0052   0.00    1.3
2024/05/18 01:04:00.000   3655333.9738   1403901.0069   5018037.9681   2   8   0.0201   0.0239   0.0166  -0.0176   0.0068   0.0054   0.00    1.2
2024/05/18 01:04:30.000   3655333.9816   1403901.0154   5018037.9741   2   8   0.0198   0.0235   0.0166  -0.0172   0.0067   0.0056   0.00    1.2
2024/05/18 01:05:00.000   3655333.9775   1403901.0251   5018037.9702   2   8   0.0195   0.0232   0.0167  -0.0169   0.0066   0.0057   0.00    1.2
2024/05/18 01:05:30.000   3655333.9639   1403901.0153   5018037.9740   2   8   0.0193   0.0229   0.0167  -0.0165   0.0066   0.0059   0.00    1.2
2024/05/18 01:06:00.000   3655333.9635   1403901.0083   5018037.9640   2   8   0.0190   0.0225   0.0167  -0.0161   0.0065   0.0061   0.00    1.2
2024/05/18 01:06:30.000   3655333.9646   1403901.0095   5018037.9748   2   8   0.0188   0.0222   0.0167  -0.0158   0.0064   0.0063   0.00    1.2
2024/05/18 01:07:00.000   3655333.9653   1403901.0115   5018037.9770   2   8   0.0185   0.0219   0.0168  -0.0155   0.0065   0.0064   0.00    1.2
2024/05/18 01:07:30.000   3655333.9597   1403901.0000   5018037.9835   2   8   0.0183   0.0216   0.0168  -0.0151   0.0064   0.0065   0.00    1.2
2024/05/18 01:08:00.000   3655333.9681   1403900.9984   5018037.9892   2   9   0.0181   0.0213   0.0168  -0.0148   0.0064   0.0066   0.00    1.0
2024/05/18 01:08:30.000   3655333.9652   1403900.9953   5018037.9764   2   9   0.0179   0.0209   0.0168  -0.0145   0.0063   0.0068   0.00    1.0
2024/05/18 01:09:00.000   3655333.9774   1403901.0107   5018037.9775   2   9   0.0176   0.0207   0.0155  -0.0141   0.0063   0.0070   0.00    1.1
2024/05/18 01:09:30.000   3655333.9798   1403901.0136   5018037.9821   2   9   0.0174   0.0204   0.0151  -0.0138   0.0064   0.0072   0.00    1.1
2024/05/18 01:10:00.000   3655333.9753   1403901.0025   5018037.9875   2   9   0.0172   0.0201   0.0149  -0.0135   0.0063   0.0073   0.00    1.2
2024/05/18 01:10:30.000   3655333.9693   1403900.9933   5018037.9819   2   9   0.0170   0.0199   0.0147  -0.0132   0.0063   0.0074   0.00    1.2
2024/05/18 01:11:00.000   3655333.9807   1403900.9875   5018037.9916   2   9   0.0168   0.0195   0.0146  -0.0129   0.0064   0.0075   0.00    1.2
2024/05/18 01:11:30.000   3655333.9793   1403900.9834   5018037.9836   2   9   0.0166   0.0193   0.0146  -0.0126   0.0063   0.0076   0.00    1.3
2024/05/18 01:12:00.000   3655333.9970   1403900.9925   5018037.9845   2   9   0.0165   0.0190   0.0145  -0.0122   0.0064   0.0077   0.00    1.3
2024/05/18 01:12:30.000   3655333.9946   1403900.9898   5018037.9856   2   9   0.0163   0.0188   0.0145  -0.0120   0.0065   0.0078   0.00    1.3
2024/05/18 01:13:00.000   3655333.9981   1403900.9966   5018037.9920   2   9   0.0161   0.0185   0.0145  -0.0117   0.0064   0.0079   0.00    1.3
2024/05/18 01:13:30.000   3655333.9952   1403900.9934   5018037.9984   2   9   0.0160   0.0183   0.0145  -0.0114   0.0064   0.0080   0.00    1.4
2024/05/18 01:14:00.000   3655333.9811   1403900.9756   5018037.9954   2   9   0.0158   0.0180   0.0145  -0.0111   0.0064   0.0080   0.00    1.4
2024/05/18 01:14:30.000   3655333.9894   1403900.9754   5018037.9996   2   9   0.0157   0.0178   0.0145  -0.0109   0.0065   0.0081   0.00    1.4
2024/05/18 01:15:00.000   3655333.9938   1403900.9720   5018038.0009   2   9   0.0155   0.0176   0.0144  -0.0106   0.0065   0.0082   0.00    1.5
2024/05/18 01:15:30.000   3655333.9912   1403900.9619   5018038.0031   2   9   0.0154   0.0174   0.0144  -0.0103   0.0065   0.0083   0.00    1.5
2024/05/18 01:16:00.000   3655334.0031   1403900.9662   5018038.0017   2   9   0.0152   0.0172   0.0145  -0.0100   0.0064   0.0084   0.00    1.5
2024/05/18 01:16:30.000   3655333.9933   1403900.9592   5018038.0057   2   9   0.0151   0.0169   0.0144  -0.0097   0.0065   0.0084   0.00    1.6
2024/05/18 01:17:00.000   3655333.9918   1403900.9565   5018038.0096   2   9   0.0150   0.0168   0.0145  -0.0095   0.0066   0.0085   0.00    1.6
2024/05/18 01:17:30.000   3655333.9867   1403900.9414   5018038.0093   2   9   0.0148   0.0166   0.0145  -0.0092   0.0066   0.0085   0.00    1.6
2024/05/18 01:18:00.000   3655333.9894   1403900.9351   5018038.0079   2   9   0.0147   0.0164   0.0145  -0.0089   0.0068   0.0086   0.00    1.6
2024/05/18 01:18:30.000   3655334.0010   1403900.9399   5018038.0183   2   9   0.0146   0.0162   0.0145  -0.0087   0.0067   0.0086   0.00    1.7
2024/05/18 01:19:00.000   3655333.9986   1403900.9278   5018038.0099   2   9   0.0145   0.0160   0.0145  -0.0085   0.0067   0.0087   0.00    1.7
2024/05/18 01:19:30.000   3655334.0119   1403900.9419   5018038.0243   2   9   0.0144   0.0158   0.0145  -0.0082   0.0068   0.0088   0.00    1.7
2024/05/18 01:20:00.000   3655334.0102   1403900.9410   5018038.0272   2   9   0.0143   0.0156   0.0145  -0.0080   0.0067   0.0089   0.00    1.7
2024/05/18 01:20:30.000   3655334.0173   1403900.9475   5018038.0345   2   9   0.0142   0.0155   0.0146  -0.0078   0.0067   0.0089   0.00    1.6
2024/05/18 01:21:00.000   3655334.0050   1403900.9408   5018038.0308   2   9   0.0141   0.0153   0.0145  -0.0075   0.0068   0.0090   0.00    1.6
2024/05/18 01:21:30.000   3655334.0142   1403900.9478   5018038.0428   2   9   0.0140   0.0152   0.0146  -0.0073   0.0068   0.0091   0.00    1.6
2024/05/18 01:22:00.000   3655334.0043   1403900.9427   5018038.0416   2   9   0.0139   0.0150   0.0146  -0.0070   0.0069   0.0091   0.00    1.6
2024/05/18 01:22:30.000   3655334.0044   1403900.9384   5018038.0343   2   9   0.0139   0.0149   0.0147  -0.0067   0.0069   0.0092   0.00    1.5
2024/05/18 01:23:00.000   3655334.0056   1403900.9366   5018038.0464   2   9   0.0138   0.0147   0.0147  -0.0065   0.0069   0.0092   0.00    1.5
2024/05/18 01:23:30.000   3655334.0070   1403900.9342   5018038.0495   2   9   0.0137   0.0145   0.0147  -0.0062   0.0070   0.0093   0.00    1.5
2024/05/18 01:24:00.000   3655334.0218   1403900.9533   5018038.0566   2   9   0.0136   0.0144   0.0147  -0.0061   0.0070   0.0094   0.00    1.5
2024/05/18 01:24:30.000   3655334.0067   1403900.9423   5018038.0531   2   9   0.0136   0.0143   0.0147  -0.0058   0.0070   0.0094   0.00    1.5
2024/05/18 01:25:00.000   3655334.0010   1403900.9366   5018038.0555   2   9   0.0135   0.0142   0.0148  -0.0055   0.0070   0.0095   0.00    1.4
2024/05/18 01:25:30.000   3655334.0077   1403900.9397   5018038.0554   2   9   0.0135   0.0140   0.0148  -0.0053   0.0071   0.0096   0.00    1.4
2024/05/18 01:26:00.000   3655334.0014   1403900.9331   5018038.0442   2   9   0.0134   0.0139   0.0148  -0.0050   0.0071   0.0096   0.00    1.4
2024/05/18 01:26:30.000   3655334.0077   1403900.9373   5018038.0587   2   9   0.0134   0.0137   0.0148  -0.0048   0.0072   0.0097   0.00    1.4
2024/05/18 01:27:00.000   3655334.0010   1403900.9286   5018038.0592   2   9   0.0133   0.0136   0.0148  -0.0046   0.0071   0.0097   0.00    1.4
2024/05/18 01:27:30.000   3655333.9928   1403900.9246   5018038.0650   2   9   0.0133   0.0136   0.0149  -0.0043   0.0072   0.0098   0.00    1.4
2024/05/18 01:28:00.000   3655333.9854   1403900.9121   5018038.0524   2   9   0.0132   0.0134   0.0149  -0.0041   0.0072   0.0099   0.00    1.4
2024/05/18 01:28:30.000   3655333.9908   1403900.9146   5018038.0555   2   9   0.0132   0.0132   0.0149  -0.0037   0.0072   0.0099   0.00    1.4
2024/05/18 01:29:00.000   3655333.9958   1403900.9157   5018038.0613   2   9   0.0131   0.0132   0.0150  -0.0035   0.0072   0.0100   0.00    1.3
2024/05/18 01:29:30.000   3655333.9990   1403900.9176   5018038.0657   2   9   0.0131   0.0130   0.0150  -0.0033   0.0073   0.0100   0.00    1.3
2024/05/18 01:30:00.000   3655334.0113   1403900.9325   5018038.0784   2   9   0.0130   0.0130   0.0150  -0.0030   0.0072   0.0101   0.00    1.3
2024/05/18 01:30:30.000   3655334.0181   1403900.9557   5018038.0890   2   9   0.0130   0.0129   0.0151  -0.0027   0.0074   0.0101   0.00    1.3
2024/05/18 01:31:00.000   3655334.0227   1403900.9750   5018038.0946   2   9   0.0130   0.0127   0.0151  -0.0022   0.0073   0.0102   0.00    1.4
2024/05/18 01:31:30.000   3655333.9920   1403900.9627   5018038.0827   2   9   0.0130   0.0126   0.0151  -0.0017   0.0073   0.0102   0.00    1.4
2024/05/18 01:32:00.000   3655333.9669   1403900.9445   5018038.0676   2   9   0.0129   0.0126   0.0151  -0.0006   0.0074   0.0103   0.00    1.4
2024/05/18 01:32:30.000   3655333.9642   1403900.9462   5018038.0617   2   9   0.0129   0.0125   0.0152   0.0004   0.0074   0.0104   0.00    1.4
2024/05/18 01:33:00.000   3655333.9708   1403900.9625   5018038.0706   2   9   0.0129   0.0123   0.0152   0.0011   0.0074   0.0104   0.00    1.4
2024/05/18 01:33:30.000   3655333.9711   1403900.9723   5018038.0751   2   9   0.0128   0.0123   0.0152   0.0018   0.0074   0.0105   0.00    1.4
2024/05/18 01:34:00.000   3655333.9623   1403900.9666   5018038.0701   2   9   0.0128   0.0120   0.0153   0.0023   0.0075   0.0105   0.00    1.4
2024/05/18 01:34:30.000   3655333.9681   1403900.9801   5018038.0893   2   9   0.0128   0.0121   0.0153   0.0025   0.0074   0.0106   0.00    1.4
2024/05/18 01:35:00.000   3655333.9844   1403901.0083   5018038.1026   2   9   0.0128   0.0119   0.0153   0.0028   0.0075   0.0107   0.00    1.4
2024/05/18 01:35:30.000   3655334.0040   1403901.0377   5018038.1235   2   9   0.0128   0.0120   0.0154   0.0029   0.0075   0.0107   0.00    1.5
2024/05/18 01:36:00.000   3655333.9574   1403901.0151   5018038.0843   2   9   0.0128   0.0118   0.0154   0.0033   0.0075   0.0108   0.00    1.5
2024/05/18 01:36:30.000   3655333.9589   1403901.0213   5018038.0927   2   9   0.0128   0.0117   0.0154   0.0034   0.0073   0.0108   0.00    1.5
2024/05/18 01:37:00.000   3655333.9464   1403901.0221   5018038.0926   2   9   0.0128   0.0117   0.0155   0.0035   0.0076   0.0109   0.00    1.5
2024/05/18 01:37:30.000   3655333.9443   1403901.0370   5018038.0916   2   9   0.0128   0.0117   0.0156   0.0036   0.0076   0.0109   0.00    1.6
2024/05/18 01:38:00.000   3655333.9343   1403901.0419   5018038.0892   2   9   0.0127   0.0115   0.0155   0.0039   0.0075   0.0110   0.00    1.6
2024/05/18 01:38:30.000   3655333.9367   1403901.0533   5018038.0882   2   9   0.0127   0.0114   0.0156   0.0041   0.0076   0.0111   0.00    1.6
2024/05/18 01:39:00.000   3655333.9275   1403901.0556   5018038.0941   2   9   0.0127   0.0113   0.0157   0.0042   0.0076   0.0111   0.00    1.7
2024/05/18 01:39:30.000   3655333.9259   1403901.0613   5018038.0879   2   9   0.0127   0.0115   0.0157   0.0043   0.0075   0.0112   0.00    1.7
2024/05/18 01:40:00.000   3655333.9064   1403901.0433   5018038.0681   2   9   0.0127   0.0111   0.0157   0.0043   0.0077   0.0112   0.00    1.7
2024/05/18 01:40:30.000   3655333.9133   1403901.0557   5018038.0787   2   9   0.0127   0.0111   0.0158   0.0046   0.0076   0.0113   0.00    1.8
2024/05/18 01:41:00.000   3655333.9009   1403901.0559   5018038.0748   2   9   0.0127   0.0110   0.0158   0.0048   0.0076   0.0113   0.00    1.8
2024/05/18 01:41:30.000   3655333.9117   1403901.0687   5018038.0830   2   9   0.0127   0.0111   0.0159   0.0048   0.0077   0.0115   0.00    1.8
2024/05/18 01:42:00.000   3655333.9073   1403901.0696   5018038.0766   2   9   0.0127   0.0110   0.0159   0.0049   0.0077   0.0115   0.00    1.9
2024/05/18 01:42:30.000   3655333.9124   1403901.0814   5018038.0920   2   9   0.0127   0.0108   0.0160   0.0049   0.0077   0.0116   0.00    1.9
2024/05/18 01:43:00.000   3655333.9229   1403901.0953   5018038.1009   2   9   0.0128   0.0109   0.0160   0.0050   0.0077   0.0116   0.00    2.0
2024/05/18 01:43:30.000   3655333.8997   1403901.0881   5018038.0944   2   9   0.0128   0.0107   0.0161   0.0052   0.0076   0.0116   0.00    2.1
2024/05/18 01:44:00.000   3655333.8982   1403901.0934   5018038.1038   2   9   0.0128   0.0107   0.0161   0.0053   0.0078   0.0118   0.00    2.1
2024/05/18 01:44:30.000   3655333.8775   1403901.0870   5018038.0832   2   9   0.0128   0.0106   0.0162   0.0052   0.0078   0.0118   0.00    2.2
2024/05/18 01:45:00.000   3655333.8768   1403901.0867   5018038.0861   2   9   0.0128   0.0106   0.0162   0.0053   0.0079   0.0119   0.00    2.2
2024/05/18 01:45:30.000   3655333.8643   1403901.0763   5018038.0711   2   9   0.0128   0.0105   0.0163   0.0055   0.0079   0.0119   0.00    2.2
2024/05/18 01:46:00.000   3655333.8334   1403901.1060   5018038.0326   1   8   0.0120   0.0062   0.0166   0.0066   0.0076   0.0120   0.00    2.8
2024/05/18 01:46:30.000   3655333.8017   1403901.0824   5018037.9862   1   8   0.0121   0.0065   0.0168   0.0067   0.0076   0.0120   0.00    2.9
2024/05/18 01:47:00.000   3655333.8228   1403901.0909   5018038.0130   1   8   0.0121   0.0064   0.0168   0.0067   0.0078   0.0122   0.00    3.0
2024/05/18 01:47:30.000   3655333.8307   1403901.0949   5018038.0212   1   8   0.0122   0.0064   0.0170   0.0067   0.0078   0.0122   0.00    3.1
2024/05/18 01:48:00.000   3655333.8580   1403901.1152   5018038.0505   1   8   0.0122   0.0065   0.0170   0.0068   0.0079   0.0124   0.00    3.1
2024/05/18 01:48:30.000   3655333.8469   1403901.1078   5018038.0392   1   8   0.0123   0.0066   0.0171   0.0069   0.0079   0.0124   0.00    3.2
2024/05/18 01:49:00.000   3655333.8557   1403901.1179   5018038.0456   1   8   0.0124   0.0064   0.0172   0.0070   0.0081   0.0125   0.00    3.2
2024/05/18 01:49:30.000   3655333.8345   1403901.1070   5018038.0333   1   8   0.0125   0.0066   0.0173   0.0070   0.0081   0.0126   0.00    3.3
2024/05/18 01:50:00.000   3655333.8220   1403901.0991   5018038.0246   1   8   0.0124   0.0066   0.0174   0.0070   0.0082   0.0127   0.00    3.3
2024/05/18 01:50:30.000   3655333.8416   1403901.1080   5018038.0468   1   8   0.0125   0.0068   0.0175   0.0070   0.0083   0.0128   0.00    3.2
2024/05/18 01:51:00.000   3655333.8554   1403901.1180   5018038.0672   1   8   0.0126   0.0067   0.0176   0.0072   0.0083   0.0129   0.00    3.1
2024/05/18 01:51:30.000   3655333.8716   1403901.1284   5018038.0878   1   8   0.0126   0.0066   0.0177   0.0073   0.0083   0.0130   0.00    3.0
2024/05/18 01:52:00.000   3655333.8623   1403901.1264   5018038.0689   1   8   0.0127   0.0066   0.0177   0.0073   0.0084   0.0132   0.00    2.9
2024/05/18 01:52:30.000   3655333.8645   1403901.1282   5018038.0690   1   8   0.0127   0.0068   0.0178   0.0074   0.0085   0.0133   0.00    2.8
2024/05/18 01:53:00.000   3655333.8667   1403901.1214   5018038.0769   1   8   0.0128   0.0069   0.0179   0.0074   0.0085   0.0133   0.00    2.7
2024/05/18 01:53:30.000   3655333.8572   1403901.1167   5018038.0641   1   8   0.0128   0.0070   0.0180   0.0074   0.0086   0.0134   0.00    2.6
2024/05/18 01:54:00.000   3655333.8592   1403901.1180   5018038.0669   1   8   0.0129   0.0068   0.0181   0.0075   0.0088   0.0135   0.00    2.6
2024/05/18 01:54:30.000   3655333.8849   1403901.1723   5018038.1177   2   8   0.0147   0.0100   0.0194   0.0070   0.0087   0.0150   0.00    2.5
2024/05/18 01:55:00.000   3655333.8816   1403901.1727   5018038.1179   2   8   0.0147   0.0101   0.0194   0.0070   0.0088   0.0151   0.00    2.4
2024/05/18 01:55:30.000   3655333.9029   1403901.1928   5018038.1434   2   8   0.0147   0.0100   0.0195   0.0071   0.0088   0.0151   0.00    2.4
2024/05/18 01:56:00.000   3655333.8891   1403901.1839   5018038.1272   2   8   0.0147   0.0099   0.0195   0.0072   0.0088   0.0152   0.00    2.3
2024/05/18 01:56:30.000   3655333.8834   1403901.1842   5018038.1190   2   8   0.0148   0.0100   0.0195   0.0072   0.0089   0.0152   0.00    2.2
2024/05/18 01:57:00.000   3655333.8774   1403901.1811   5018038.1096   2   8   0.0148   0.0100   0.0196   0.0072   0.0089   0.0153   0.00    2.2
2024/05/18 01:57:30.000   3655333.8745   1403901.1864   5018038.1119   2   8   0.0149   0.0100   0.0196   0.0072   0.0090   0.0153   0.00    2.2
2024/05/18 01:58:00.000   3655333.8655   1403901.1841   5018038.1007   2   8   0.0148   0.0100   0.0196   0.0073   0.0090   0.0154   0.00    2.1
2024/05/18 01:58:30.000   3655333.8746   1403901.2018   5018038.1087   2   8   0.0148   0.0101   0.0196   0.0074   0.0090   0.0154   0.00    2.1
2024/05/18 01:59:00.000   3655333.8533   1403901.1917   5018038.0868   2   8   0.0149   0.0099   0.0197   0.0075   0.0090   0.0154   0.00    2.0
2024/05/18 01:59:30.000   3655333.8356   1403901.1823   5018038.0597   2   8   0.0149   0.0099   0.0197   0.0075   0.0090   0.0154   0.00    2.0
2024/05/18 02:00:00.000   3655333.8381   1403901.1883   5018038.0555   2   8   0.0149   0.0098   0.0197   0.0076   0.0090   0.0155   0.00    1.9
2024/05/18 02:00:30.000   3655333.8377   1403901.1874   5018038.0576   2   8   0.0149   0.0098   0.0197   0.0076   0.0091   0.0155   0.00    1.9
2024/05/18 02:01:00.000   3655333.8421   1403901.1873   5018038.0637   2   8   0.0150   0.0099   0.0197   0.0077   0.0091   0.0155   0.00    1.8
2024/05/18 02:01:30.000   3655333.8732   1403901.2073   5018038.1080   2   8   0.0150   0.0099   0.0197   0.0076   0.0092   0.0155   0.00    1.8
2024/05/18 02:02:00.000   3655333.8729   1403901.2164   5018038.0951   2   8   0.0149   0.0099   0.0197   0.0078   0.0091   0.0156   0.00    1.7
2024/05/18 02:02:30.000   3655333.8973   1403901.2326   5018038.1252   2   8   0.0150   0.0098   0.0197   0.0078   0.0092   0.0156   0.00    1.7
2024/05/18 02:03:00.000   3655333.9008   1403901.2390   5018038.1360   2   8   0.0150   0.0098   0.0197   0.0079   0.0092   0.0156   0.00    1.6
2024/05/18 02:03:30.000   3655333.8971   1403901.2438   5018038.1213   2   8   0.0149   0.0098   0.0197   0.0079   0.0092   0.0156   0.00    1.6
2024/05/18 02:04:00.000   3655333.8897   1403901.2420   5018038.1173   2   8   0.0150   0.0099   0.0198   0.0079   0.0092   0.0155   0.00    1.5
2024/05/18 02:04:30.000   3655333.8642   1403901.2344   5018038.0978   2   8   0.0150   0.0098   0.0197   0.0080   0.0093   0.0156   0.00    1.5
2024/05/18 02:05:00.000   3655333.8362   1403901.2251   5018038.0682   2   8   0.0151   0.0098   0.0197   0.0079   0.0093   0.0155   0.00    1.4
2024/05/18 02:05:30.000   3655333.8009   1403901.2129   5018038.0256   2   8   0.0149   0.0098   0.0196   0.0080   0.0093   0.0156   0.00    1.4
2024/05/18 02:06:00.000   3655333.7789   1403901.1993   5018037.9990   2   8   0.0150   0.0099   0.0196   0.0081   0.0093   0.0156   0.00    1.4
2024/05/18 02:06:30.000   3655333.7754   1403901.2008   5018038.0021   2   8   0.0150   0.0098   0.0196   0.0081   0.0094   0.0155   0.00    1.4
2024/05/18 02:07:00.000   3655333.7737   1403901.1978   5018038.0024   2   8   0.0150   0.0098   0.0195   0.0082   0.0093   0.0155   0.00    1.4
2024/05/18 02:07:30.000   3655333.7644   1403901.2000   5018037.9921   2   9   0.0150   0.0098   0.0195   0.0082   0.0093   0.0155   0.00    1.0
2024/05/18 02:08:00.000   3655333.7715   1403901.2039   5018038.0018   2   9   0.0139   0.0092   0.0186   0.0072   0.0082   0.0145   0.00    1.0
2024/05/18 02:08:30.000   3655333.7816   1403901.2116   5018038.0094   2   9   0.0136   0.0092   0.0183   0.0066   0.0079   0.0141   0.00    1.0
2024/05/18 02:09:00.000   3655333.7861   1403901.2185   5018038.0224   2   9   0.0133   0.0091   0.0181   0.0065   0.0077   0.0139   0.00    1.0
2024/05/18 02:09:30.000   3655333.7883   1403901.2183   5018038.0205   2   9   0.0132   0.0088   0.0179   0.0064   0.0078   0.0137   0.00    1.0
2024/05/18 02:10:00.000   3655333.7924   1403901.2252   5018038.0260   2   9   0.0131   0.0091   0.0178   0.0064   0.0076   0.0136   0.00    1.0
2024/05/18 02:10:30.000   3655333.8052   1403901.2304   5018038.0403   2  10   0.0131   0.0091   0.0177   0.0063   0.0074   0.0135   0.00    1.0
2024/05/18 02:11:00.000   3655333.7918   1403901.2296   5018038.0267   2  10   0.0127   0.0087   0.0167   0.0059   0.0066   0.0129   0.00    1.0
2024/05/18 02:11:30.000   3655333.7832   1403901.2261   5018038.0219   2  10   0.0126   0.0087   0.0162   0.0056   0.0064   0.0126   0.00    1.0
2024/05/18 02:12:00.000   3655333.7731   1403901.2175   5018038.0181   2  10   0.0125   0.0085   0.0160   0.0056   0.0062   0.0125   0.00    1.1
2024/05/18 02:12:30.000   3655333.7708   1403901.2164   5018038.0181   2  10   0.0124   0.0087   0.0158   0.0055   0.0059   0.0123   0.00    1.1
2024/05/18 02:13:00.000   3655333.7732   1403901.2203   5018038.0158   2  10   0.0124   0.0085   0.0157   0.0054   0.0059   0.0122   0.00    1.1
2024/05/18 02:13:30.000   3655333.7748   1403901.2272   5018038.0148   2  10   0.0123   0.0082   0.0155   0.0055   0.0060   0.0121   0.00    1.0
2024/05/18 02:14:00.000   3655333.7762   1403901.2320   5018038.0180   2  10   0.0122   0.0083   0.0154   0.0056   0.0058   0.0121   0.00    1.0
2024/05/18 02:14:30.000   3655333.7831   1403901.2393   5018038.0198   2  10   0.0122   0.0087   0.0154   0.0053   0.0056   0.0120   0.00    1.0
2024/05/18 02:15:00.000   3655333.7787   1403901.2427   5018038.0116   2  10   0.0122   0.0085   0.0152   0.0052   0.0057   0.0119   0.00    1.1
2024/05/18 02:15:30.000   3655333.7722   1403901.2423   5018038.0067   2  10   0.0122   0.0082   0.0152   0.0054   0.0057   0.0119   0.00    1.1
2024/05/18 02:16:00.000   3655333.7695   1403901.2433   5018038.0058   2  10   0.0121   0.0080   0.0151   0.0055   0.0057   0.0118   0.00    1.1
2024/05/18 02:16:30.000   3655333.7611   1403901.2428   5018037.9917   2  10   0.0121   0.0080   0.0150   0.0054   0.0056   0.0118   0.00    1.1
2024/05/18 02:17:00.000   3655333.7391   1403901.2359   5018037.9665   2  10   0.0120   0.0084   0.0149   0.0051   0.0055   0.0117   0.00    1.2
2024/05/18 02:17:30.000   3655333.7455   1403901.2365   5018037.9790   2  10   0.0120   0.0085   0.0148   0.0053   0.0053   0.0116   0.00    1.2
2024/05/18 02:18:00.000   3655333.7452   1403901.2423   5018037.9829   2  10   0.0120   0.0083   0.0147   0.0055   0.0053   0.0116   0.00    1.2
2024/05/18 02:18:30.000   3655333.7534   1403901.2454   5018037.9884   2  10   0.0119   0.0083   0.0147   0.0051   0.0054   0.0115   0.00    1.2
2024/05/18 02:19:00.000   3655333.7478   1403901.2434   5018037.9817   2  10   0.0119   0.0081   0.0146   0.0055   0.0055   0.0114   0.00    1.3
2024/05/18 02:19:30.000   3655333.7484   1403901.2465   5018037.9873   2  10   0.0119   0.0082   0.0145   0.0054   0.0053   0.0114   0.00    1.3
2024/05/18 02:20:00.000   3655333.7508   1403901.2503   5018037.9839   2  10   0.0118   0.0080   0.0144   0.0054   0.0054   0.0114   0.00    1.3
2024/05/18 02:20:30.000   3655333.7576   1403901.2566   5018037.9900   2  10   0.0118   0.0082   0.0144   0.0054   0.0053   0.0113   0.00    1.3
2024/05/18 02:21:00.000   3655333.7650   1403901.2591   5018037.9861   2  10   0.0118   0.0084   0.0143   0.0052   0.0050   0.0113   0.00    1.3
2024/05/18 02:21:30.000   3655333.7588   1403901.2625   5018037.9844   2  10   0.0117   0.0080   0.0143   0.0055   0.0052   0.0112   0.00    1.4
2024/05/18 02:22:00.000   3655333.7529   1403901.2637   5018037.9746   2  10   0.0117   0.0084   0.0142   0.0053   0.0051   0.0112   0.00    1.4
2024/05/18 02:22:30.000   3655333.7392   1403901.2548   5018037.9709   2  10   0.0117   0.0083   0.0141   0.0054   0.0051   0.0111   0.00    1.4
2024/05/18 02:23:00.000   3655333.7259   1403901.2509   5018037.9564   2  10   0.0116   0.0080   0.0140   0.0055   0.0053   0.0111   0.00    1.4
2024/05/18 02:23:30.000   3655333.7369   1403901.2590   5018037.9641   2  10   0.0116   0.0082   0.0140   0.0054   0.0051   0.0110   0.00    1.5
2024/05/18 02:24:00.000   3655333.7339   1403901.2582   5018037.9631   2  10   0.0116   0.0080   0.0139   0.0056   0.0051   0.0109   0.00    1.5
2024/05/18 02:24:30.000   3655333.7319   1403901.2616   5018037.9552   2  10   0.0115   0.0080   0.0139   0.0056   0.0050   0.0109   0.00    1.5
2024/05/18 02:25:00.000   3655333.7218   1403901.2561   5018037.9464   2  10   0.0116   0.0081   0.0138   0.0055   0.0049   0.0108   0.00    1.5
2024/05/18 02:25:30.000   3655333.7283   1403901.2584   5018037.9489   2  10   0.0115   0.0083   0.0137   0.0052   0.0048   0.0109   0.00    1.6
2024/05/18 02:26:00.000   3655333.7350   1403901.2553   5018037.9550   2  10   0.0115   0.0080   0.0136   0.0054   0.0050   0.0108   0.00    1.6
2024/05/18 02:26:30.000   3655333.7226   1403901.2513   5018037.9414   2  10   0.0114   0.0079   0.0136   0.0058   0.0049   0.0107   0.00    1.6
2024/05/18 02:27:00.000   3655333.7188   1403901.2514   5018037.9398   2  10   0.0114   0.0082   0.0135   0.0053   0.0050   0.0106   0.00    1.6
2024/05/18 02:27:30.000   3655333.7273   1403901.2521   5018037.9532   2  10   0.0114   0.0080   0.0135   0.0056   0.0048   0.0106   0.00    1.7
2024/05/18 02:28:00.000   3655333.7244   1403901.2566   5018037.9457   2  10   0.0114   0.0081   0.0134   0.0055   0.0045   0.0105   0.00    1.7
2024/05/18 02:28:30.000   3655333.7277   1403901.2609   5018037.9422   2  10   0.0114   0.0079   0.0133   0.0056   0.0047   0.0105   0.00    1.7
2024/05/18 02:29:00.000   3655333.7253   1403901.2627   5018037.9407   2  10   0.0114   0.0081   0.0133   0.0056   0.0047   0.0105   0.00    1.8
2024/05/18 02:29:30.000   3655333.7223   1403901.2587   5018037.9380   2  10   0.0113   0.0080   0.0132   0.0056   0.0046   0.0104   0.00    1.8
2024/05/18 02:30:00.000   3655333.7246   1403901.2668   5018037.9405   2  10   0.0113   0.0079   0.0131   0.0057   0.0047   0.0104   0.00    1.8
2024/05/18 02:30:30.000   3655333.7251   1403901.2629   5018037.9473   2  10   0.0113   0.0081   0.0131   0.0056   0.0044   0.0103   0.00    1.8
2024/05/18 02:31:00.000   3655333.7235   1403901.2670   5018037.9453   2  10   0.0113   0.0080   0.0131   0.0056   0.0046   0.0103   0.00    1.9
2024/05/18 02:31:30.000   3655333.7191   1403901.2640   5018037.9451   2  10   0.0112   0.0080   0.0130   0.0057   0.0046   0.0102   0.00    1.9
2024/05/18 02:32:00.000   3655333.7237   1403901.2692   5018037.9500   2  10   0.0111   0.0080   0.0129   0.0058   0.0047   0.0101   0.00    1.9
2024/05/18 02:32:30.000   3655333.7246   1403901.2682   5018037.9524   2  10   0.0112   0.0081   0.0129   0.0056   0.0046   0.0101   0.00    2.0
2024/05/18 02:33:00.000   3655333.7200   1403901.2669   5018037.9487   2  10   0.0112   0.0081   0.0129   0.0057   0.0045   0.0100   0.00    2.0
2024/05/18 02:33:30.000   3655333.7246   1403901.2625   5018037.9443   2  10   0.0112   0.0081   0.0128   0.0057   0.0046   0.0100   0.00    2.0
2024/05/18 02:34:00.000   3655333.7347   1403901.2653   5018037.9472   2  10   0.0112   0.0082   0.0127   0.0056   0.0045   0.0100   0.00    2.1
2024/05/18 02:34:30.000   3655333.7232   1403901.2530   5018037.9396   2  10   0.0111   0.0079   0.0126   0.0059   0.0046   0.0100   0.00    2.1
2024/05/18 02:35:00.000   3655333.7332   1403901.2621   5018037.9509   2  10   0.0111   0.0082   0.0126   0.0056   0.0042   0.0099   0.00    2.1
2024/05/18 02:35:30.000   3655333.7212   1403901.2477   5018037.9426   2   9   0.0119   0.0090   0.0133   0.0071   0.0058   0.0107   0.00    1.9
2024/05/18 02:36:00.000   3655333.7212   1403901.2459   5018037.9375   2   9   0.0118   0.0090   0.0132   0.0070   0.0059   0.0106   0.00    1.9
2024/05/18 02:36:30.000   3655333.7226   1403901.2495   5018037.9443   2   9   0.0118   0.0090   0.0131   0.0071   0.0059   0.0106   0.00    1.9
2024/05/18 02:37:00.000   3655333.7278   1403901.2499   5018037.9554   2   9   0.0118   0.0090   0.0131   0.0071   0.0059   0.0105   0.00    2.0
2024/05/18 02:37:30.000   3655333.7194   1403901.2484   5018037.9446   2   9   0.0118   0.0090   0.0130   0.0071   0.0058   0.0105   0.00    2.0
2024/05/18 02:38:00.000   3655333.7292   1403901.2410   5018037.9512   2   9   0.0117   0.0090   0.0130   0.0072   0.0058   0.0104   0.00    2.0
2024/05/18 02:38:30.000   3655333.7356   1403901.2349   5018037.9542   2   9   0.0117   0.0090   0.0129   0.0071   0.0057   0.0103   0.00    2.0
2024/05/18 02:39:00.000   3655333.7416   1403901.2400   5018037.9627   2   9   0.0117   0.0091   0.0129   0.0071   0.0058   0.0102   0.00    2.1
2024/05/18 02:39:30.000   3655333.7454   1403901.2387   5018037.9711   2   9   0.0117   0.0090   0.0128   0.0072   0.0057   0.0102   0.00    2.1
2024/05/18 02:40:00.000   3655333.7394   1403901.2367   5018037.9683   2   9   0.0116   0.0090   0.0127   0.0071   0.0056   0.0102   0.00    2.1
2024/05/18 02:40:30.000   3655333.7429   1403901.2493   5018037.9678   2   9   0.0117   0.0092   0.0126   0.0070   0.0055   0.0102   0.00    2.2
2024/05/18 02:41:00.000   3655333.7303   1403901.2344   5018037.9604   2   9   0.0116   0.0090   0.0127   0.0072   0.0056   0.0101   0.00    2.2
2024/05/18 02:41:30.000   3655333.7356   1403901.2339   5018037.9704   2   9   0.0116   0.0091   0.0126   0.0071   0.0056   0.0100   0.00    2.2
2024/05/18 02:42:00.000   3655333.7368   1403901.2338   5018037.9683   2   9   0.0116   0.0090   0.0125   0.0072   0.0054   0.0100   0.00    2.3
2024/05/18 02:42:30.000   3655333.7371   1403901.2220   5018037.9620   2   9   0.0116   0.0090   0.0125   0.0072   0.0054   0.0100   0.00    2.3
2024/05/18 02:43:00.000   3655333.7314   1403901.2144   5018037.9521   2   9   0.0115   0.0090   0.0124   0.0072   0.0054   0.0099   0.00    2.3
2024/05/18 02:43:30.000   3655333.7366   1403901.2139   5018037.9539   2   9   0.0115   0.0090   0.0124   0.0072   0.0054   0.0098   0.00    2.3
2024/05/18 02:44:00.000   3655333.7292   1403901.2042   5018037.9450   2   9   0.0116   0.0090   0.0124   0.0073   0.0054   0.0098   0.00    2.4
2024/05/18 02:44:30.000   3655333.7353   1403901.2098   5018037.9431   2   9   0.0115   0.0092   0.0123   0.0071   0.0051   0.0098   0.00    2.4
2024/05/18 02:45:00.000   3655333.7487   1403901.2166   5018037.9555   2   9   0.0115   0.0091   0.0123   0.0073   0.0053   0.0097   0.00    2.4
2024/05/18 02:45:30.000   3655333.7421   1403901.2116   5018037.9450   2   9   0.0115   0.0091   0.0122   0.0072   0.0052   0.0096   0.00    2.4
2024/05/18 02:46:00.000   3655333.7351   1403901.2047   5018037.9388   2   9   0.0115   0.0090   0.0122   0.0073   0.0052   0.0096   0.00    2.5
2024/05/18 02:46:30.000   3655333.7290   1403901.1987   5018037.9373   2   9   0.0114   0.0092   0.0121   0.0072   0.0051   0.0096   0.00    2.5
2024/05/18 02:47:00.000   3655333.7416   1403901.0206   5018037.9174   1   9   0.0110   0.0078   0.0118   0.0074   0.0055   0.0092   0.00    2.5
2024/05/18 02:47:30.000   3655333.7264   1403901.0135   5018037.9109   1   9   0.0109   0.0078   0.0119   0.0075   0.0056   0.0091   0.00    2.5
2024/05/18 02:48:00.000   3655333.7369   1403901.0213   5018037.9112   1   9   0.0109   0.0080   0.0118   0.0074   0.0054   0.0091   0.00    2.5
2024/05/18 02:48:30.000   3655333.7325   1403901.0173   5018037.9095   1   9   0.0110   0.0079   0.0117   0.0074   0.0054   0.0091   0.00    2.6
2024/05/18 02:49:00.000   3655333.7269   1403901.2088   5018037.9266   2   8   0.0127   0.0093   0.0127   0.0077   0.0055   0.0106   0.00    2.1
2024/05/18 02:49:30.000   3655333.7177   1403901.2008   5018037.9185   2   8   0.0126   0.0091   0.0127   0.0078   0.0054   0.0105   0.00    2.1
2024/05/18 02:50:00.000   3655333.7220   1403901.2030   5018037.9161   2   8   0.0126   0.0093   0.0127   0.0077   0.0052   0.0104   0.00    2.1
2024/05/18 02:50:30.000   3655333.7532   1403901.0218   5018037.9270   1   7   0.0165   0.0121   0.0138   0.0127   0.0093   0.0130   0.00    3.2
2024/05/18 02:51:00.000   3655333.7657   1403901.0305   5018037.9291   1   7   0.0164   0.0121   0.0137   0.0127   0.0092   0.0129   0.00    3.2
2024/05/18 02:51:30.000   3655333.7540   1403901.0199   5018037.9187   1   7   0.0163   0.0120   0.0136   0.0127   0.0091   0.0128   0.00    3.2
2024/05/18 02:52:00.000   3655333.7440   1403901.0183   5018037.9154   1   7   0.0163   0.0121   0.0136   0.0126   0.0091   0.0126   0.00    3.2
2024/05/18 02:52:30.000   3655333.7253   1403901.0108   5018037.9036   1   7   0.0162   0.0121   0.0135   0.0127   0.0090   0.0126   0.00    3.3
2024/05/18 02:53:00.000   3655333.7227   1403901.0144   5018037.9001   1   7   0.0161   0.0121   0.0134   0.0126   0.0089   0.0124   0.00    3.3
2024/05/18 02:53:30.000   3655333.7328   1403901.0180   5018037.9068   1   7   0.0160   0.0122   0.0133   0.0126   0.0088   0.0123   0.00    3.3
2024/05/18 02:54:00.000   3655333.7304   1403901.0111   5018037.9060   1   7   0.0160   0.0122   0.0132   0.0125   0.0087   0.0122   0.00    3.3
2024/05/18 02:54:30.000   3655333.7333   1403901.0126   5018037.9119   1   7   0.0159   0.0122   0.0131   0.0125   0.0086   0.0121   0.00    3.3
2024/05/18 02:55:00.000   3655333.7446   1403901.0176   5018037.9197   1   7   0.0158   0.0123   0.0131   0.0125   0.0086   0.0120   0.00    3.3
2024/05/18 02:55:30.000   3655333.7464   1403901.0185   5018037.9259   1   7   0.0158   0.0123   0.0130   0.0125   0.0086   0.0119   0.00    3.3
2024/05/18 02:56:00.000   3655333.7485   1403901.0176   5018037.9304   1   7   0.0157   0.0122   0.0130   0.0125   0.0084   0.0118   0.00    3.4
2024/05/18 02:56:30.000   3655333.7423   1403901.0117   5018037.9324   1   7   0.0156   0.0123   0.0129   0.0125   0.0084   0.0117   0.00    3.4
2024/05/18 02:57:00.000   3655333.7457   1403901.0105   5018037.9352   1   7   0.0156   0.0123   0.0129   0.0125   0.0083   0.0116   0.00    3.4
2024/05/18 02:57:30.000   3655333.7451   1403901.0193   5018037.9304   1   7   0.0155   0.0124   0.0128   0.0125   0.0082   0.0115   0.00    3.4
2024/05/18 02:58:00.000   3655333.7508   1403901.0225   5018037.9349   1   7   0.0155   0.0125   0.0128   0.0124   0.0081   0.0114   0.00    3.4
2024/05/18 02:58:30.000   3655333.7632   1403901.0255   5018037.9433   1   7   0.0154   0.0125   0.0127   0.0124   0.0080   0.0113   0.00    3.4
2024/05/18 02:59:00.000   3655333.7608   1403901.0231   5018037.9498   1   7   0.0153   0.0124   0.0127   0.0124   0.0079   0.0112   0.00    3.4
2024/05/18 02:59:30.000   3655333.7470   1403901.0153   5018037.9369   1   7   0.0152   0.0125   0.0126   0.0124   0.0079   0.0111   0.00    3.4
2024/05/18 03:00:00.000   3655333.7426   1403901.0170   5018037.9364   1   7   0.0152   0.0125   0.0126   0.0124   0.0077   0.0110   0.00    3.4
2024/05/18 03:00:30.000   3655333.7353   1403901.0152   5018037.9318   1   7   0.0151   0.0126   0.0126   0.0124   0.0077   0.0109   0.00    3.4
2024/05/18 03:01:00.000   3655333.7300   1403901.0152   5018037.9302   1   7   0.0151   0.0126   0.0125   0.0124   0.0076   0.0108   0.00    3.4
2024/05/18 03:01:30.000   3655333.7396   1403901.0201   5018037.9284   1   7   0.0150   0.0126   0.0125   0.0123   0.0075   0.0107   0.00    3.4
2024/05/18 03:02:00.000   3655333.7405   1403901.0234   5018037.9212   1   7   0.0150   0.0126   0.0124   0.0123   0.0074   0.0106   0.00    3.4
2024/05/18 03:02:30.000   3655333.7321   1403901.0188   5018037.9197   1   7   0.0150   0.0126   0.0124   0.0123   0.0073   0.0105   0.00    3.4
2024/05/18 03:03:00.000   3655333.6916   1403901.1795   5018037.9050   2   6   0.0152   0.0140   0.0142   0.0125   0.0054   0.0103   0.00    1.7
2024/05/18 03:03:30.000   3655333.6945   1403901.1857   5018037.9048   2   6   0.0152   0.0140   0.0142   0.0125   0.0051   0.0102   0.00    1.7
2024/05/18 03:04:00.000   3655333.6900   1403901.1824   5018037.9057   2   6   0.0152   0.0140   0.0142   0.0125   0.0051   0.0102   0.00    1.7
2024/05/18 03:04:30.000   3655333.6778   1403901.1772   5018037.8941   2   6   0.0152   0.0140   0.0142   0.0125   0.0049   0.0100   0.00    1.7
2024/05/18 03:05:00.000   3655333.6815   1403901.1770   5018037.8935   2   6   0.0151   0.0141   0.0142   0.0125   0.0048   0.0099   0.00    1.8
2024/05/18 03:05:30.000   3655333.6838   1403901.1775   5018037.8957   2   6   0.0150   0.0141   0.0141   0.0125   0.0047   0.0098   0.00    1.8
2024/05/18 03:06:00.000   3655333.6711   1403901.1635   5018037.8945   2   6   0.0150   0.0141   0.0141   0.0125   0.0045   0.0097   0.00    1.8
2024/05/18 03:06:30.000   3655333.6689   1403901.1589   5018037.8931   2   6   0.0149   0.0142   0.0141   0.0125   0.0043   0.0096   0.00    1.8
2024/05/18 03:07:00.000   3655333.6725   1403901.1623   5018037.8994   2   6   0.0149   0.0142   0.0141   0.0125   0.0041   0.0095   0.00    1.8
2024/05/18 03:07:30.000   3655333.6833   1403901.1707   5018037.8962   2   6   0.0148   0.0142   0.0141   0.0125   0.0040   0.0094   0.00    1.8
2024/05/18 03:08:00.000   3655333.7046   1403901.1815   5018037.9041   2   6   0.0148   0.0143   0.0141   0.0125   0.0039   0.0093   0.00    1.8
2024/05/18 03:08:30.000   3655333.7216   1403901.1875   5018037.9097   2   6   0.0148   0.0143   0.0141   0.0125   0.0036   0.0092   0.00    1.8
2024/05/18 03:09:00.000   3655333.7443   1403901.1946   5018037.9187   2   6   0.0147   0.0143   0.0141   0.0125   0.0033   0.0091   0.00    1.8
2024/05/18 03:09:30.000   3655333.7542   1403901.1953   5018037.9274   2   6   0.0147   0.0144   0.0141   0.0125   0.0033   0.0090   0.00    1.8
2024/05/18 03:10:00.000   3655333.7504   1403901.1906   5018037.9218   2   6   0.0146   0.0144   0.0141   0.0125   0.0030   0.0089   0.00    1.8
2024/05/18 03:10:30.000   3655333.7425   1403901.1851   5018037.9158   2   6   0.0146   0.0144   0.0141   0.0125   0.0028   0.0088   0.00    1.8
2024/05/18 03:11:00.000   3655333.7521   1403901.1925   5018037.9168   2   6   0.0146   0.0144   0.0141   0.0125   0.0025   0.0087   0.00    1.8
2024/05/18 03:11:30.000   3655333.7464   1403901.1871   5018037.9201   2   6   0.0145   0.0145   0.0141   0.0125   0.0023   0.0086   0.00    1.8
2024/05/18 03:12:00.000   3655333.7398   1403901.1788   5018037.9259   2   6   0.0144   0.0145   0.0141   0.0125   0.0020   0.0085   0.00    1.8
2024/05/18 03:12:30.000   3655333.7396   1403901.1750   5018037.9331   2   6   0.0144   0.0145   0.0142   0.0125   0.0017   0.0084   0.00    1.9
2024/05/18 03:13:00.000   3655333.7231   1403901.1682   5018037.9255   2   6   0.0144   0.0145   0.0142   0.0125   0.0010   0.0083   0.00    1.9
2024/05/18 03:13:30.000   3655333.7242   1403901.1687   5018037.9267   2   6   0.0144   0.0146   0.0142   0.0125   0.0006   0.0082   0.00    1.9
2024/05/18 03:14:00.000   3655333.7043   1403901.1543   5018037.9177   2   6   0.0143   0.0146   0.0142   0.0124  -0.0011   0.0082   0.00    1.9
2024/05/18 03:14:30.000   3655333.6867   1403901.1460   5018037.9071   2   6   0.0142   0.0146   0.0142   0.0125  -0.0016   0.0081   0.00    1.9
2024/05/18 03:15:00.000   3655333.6771   1403901.1370   5018037.9061   2   6   0.0143   0.0146   0.0143   0.0124  -0.0018   0.0080   0.00    2.0
2024/05/18 03:15:30.000   3655333.6663   1403901.1364   5018037.8990   2   6   0.0142   0.0147   0.0143   0.0125  -0.0023   0.0079   0.00    2.0
2024/05/18 03:16:00.000   3655333.6660   1403901.1340   5018037.8975   2   6   0.0141   0.0147   0.0143   0.0124  -0.0025   0.0078   0.00    2.0
2024/05/18 03:16:30.000   3655333.6861   1403901.1502   5018037.9067   2   6   0.0141   0.0147   0.0144   0.0124  -0.0028   0.0077   0.00    2.0
2024/05/18 03:17:00.000   3655333.6831   1403901.1495   5018037.9049   2   7   0.0141   0.0147   0.0144   0.0124  -0.0029   0.0076   0.00    1.0
2024/05/18 03:17:30.000   3655333.6870   1403901.1516   5018037.9055   2   7   0.0123   0.0127   0.0144   0.0101  -0.0031   0.0075   0.00    1.0
2024/05/18 03:18:00.000   3655333.6881   1403901.1467   5018037.9154   2   8   0.0117   0.0119   0.0145   0.0092  -0.0033   0.0075   0.00    1.0
2024/05/18 03:18:30.000   3655333.6872   1403901.1452   5018037.9151   2   8   0.0112   0.0113   0.0142   0.0086  -0.0041   0.0070   0.00    1.1
2024/05/18 03:19:00.000   3655333.6906   1403901.1440   5018037.9196   2   8   0.0108   0.0109   0.0141   0.0082  -0.0045   0.0069   0.00    1.1
2024/05/18 03:19:30.000   3655333.7011   1403901.1454   5018037.9204   2   8   0.0107   0.0107   0.0141   0.0079  -0.0046   0.0068   0.00    1.2
2024/05/18 03:20:00.000   3655333.7027   1403901.1456   5018037.9170   2   8   0.0105   0.0105   0.0141   0.0076  -0.0048   0.0067   0.00    1.2
2024/05/18 03:20:30.000   3655333.7101   1403901.1506   5018037.9157   2   8   0.0104   0.0103   0.0141   0.0074  -0.0048   0.0067   0.00    1.3
2024/05/18 03:21:00.000   3655333.7104   1403901.1494   5018037.9161   2   8   0.0103   0.0102   0.0141   0.0073  -0.0050   0.0066   0.00    1.3
2024/05/18 03:21:30.000   3655333.7130   1403901.1567   5018037.9090   2   8   0.0102   0.0101   0.0142   0.0072  -0.0050   0.0066   0.00    1.3
