% program   : RTKPOST ver.2.4.3 b34
% inp file  : WUTR00POL_R_20241390000_01D_30S_MO.rnx
% inp file  : NODW1390.24o
% inp file  : NODW1390.24n
% obs start : 2024/05/18 00:00:00.0 GPST (week2314 518400.0s)
% obs end   : 2024/05/18 23:59:30.0 GPST (week2314 604770.0s)
% pos mode  : Kinematic
% freqs     : L1+2
% solution  : Forward
% elev mask : 15.0 deg
% dynamics  : off
% tidecorr  : off
% ionos opt : Broadcast
% tropo opt : Saastamoinen
% ephemeris : Broadcast
% navi sys  : GPS
% amb res   : Continuous
% val thres : 2.5
% antenna1  :                       ( 0.0000  0.0000  0.1010)
% antenna2  :                       ( 0.0000  0.0000  0.0000)
% ref pos   :  3645290.9676   1378210.0919   5032291.5487
%
% (x/y/z-ecef=WGS84,Q=1:fix,2:float,3:sbas,4:dgps,5:single,6:ppp,ns=# of satellites)
%  GPST                      x-ecef(m)      y-ecef(m)      z-ecef(m)   Q  ns   sdx(m)   sdy(m)   sdz(m)  sdxy(m)  sdyz(m)  sdzx(m) age(s)  ratio
2024/05/18 00:00:00.000   3655333.7801   1403900.7430   5018038.0446   2   8   1.1580   0.6265   1.2637   0.5497   0.4747   0.9638   0.00    1.1
2024/05/18 00:00:30.000   3655333.5710   1403900.7290   5018037.8806   2   8   0.7810   0.4413   0.7892   0.3723   0.3045   0.6004   0.00    1.1
2024/05/18 00:01:00.000   3655333.3998   1403900.5660   5018037.8414   2   8   0.6033   0.3570   0.5493   0.2881   0.2210   0.4171   0.00    1.1
2024/05/18 00:01:30.000   3655333.3413   1403900.6342   5018037.8153   2   8   0.4969   0.3056   0.4048   0.2365   0.1716   0.3067   0.00    1.1
2024/05/18 00:02:00.000   3655333.3478   1403900.6534   5018037.7091   2   8   0.4254   0.2698   0.3113   0.2004   0.1399   0.2354   0.00    1.1
2024/05/18 00:02:30.000   3655333.4081   1403900.6553   5018037.7920   2   8   0.3733   0.2427   0.2478   0.1729   0.1183   0.1868   0.00    1.1
2024/05/18 00:03:00.000   3655333.4436   1403900.6293   5018037.8734   2   8   0.3330   0.2211   0.2027   0.1507   0.1027   0.1523   0.00    1.0
2024/05/18 00:03:30.000   3655333.3991   1403900.6342   5018037.9558   2   8   0.3005   0.2033   0.1697   0.1320   0.0911   0.1268   0.00    1.0
2024/05/18 00:04:00.000   3655333.3856   1403900.6441   5018037.9623   2   8   0.2735   0.1883   0.1446   0.1158   0.0820   0.1073   0.00    1.0
2024/05/18 00:04:30.000   3655333.3189   1403900.6369   5018037.9388   2   8   0.2506   0.1753   0.1252   0.1015   0.0747   0.0921   0.00    1.0
2024/05/18 00:05:00.000   3655333.2610   1403900.6442   5018037.9651   2   8   0.2309   0.1640   0.1098   0.0887   0.0686   0.0799   0.00    1.0
2024/05/18 00:05:30.000   3655333.2614   1403900.6679   5018037.9794   2   8   0.2137   0.1541   0.0974   0.0771   0.0636   0.0700   0.00    1.0
2024/05/18 00:06:00.000   3655333.2559   1403900.6451   5018037.9961   2   8   0.1986   0.1452   0.0872   0.0663   0.0592   0.0617   0.00    1.0
2024/05/18 00:06:30.000   3655333.2460   1403900.6072   5018038.0009   2   8   0.1852   0.1373   0.0787   0.0563   0.0555   0.0548   0.00    1.1
2024/05/18 00:07:00.000   3655333.2317   1403900.5841   5018038.0024   2   7   0.1742   0.1308   0.0724   0.0445   0.0512   0.0504   0.00    2.1
2024/05/18 00:07:30.000   3655333.2699   1403900.5833   5018038.0001   2   7   0.1641   0.1250   0.0663   0.0319   0.0481   0.0456   0.00    1.8
2024/05/18 00:08:00.000   3655333.2948   1403900.5744   5018038.0021   2   7   0.1551   0.1199   0.0612   0.0159   0.0454   0.0413   0.00    1.5
2024/05/18 00:08:30.000   3655333.3072   1403900.5978   5018038.0130   2   7   0.1469   0.1151   0.0567  -0.0191   0.0430   0.0376   0.00    1.3
2024/05/18 00:09:00.000   3655333.3237   1403900.6187   5018038.0282   2   7   0.1396   0.1108   0.0527  -0.0293   0.0409   0.0342   0.00    1.1
2024/05/18 00:09:30.000   3655333.3065   1403900.6167   5018038.0360   2   7   0.1328   0.1069   0.0493  -0.0354   0.0390   0.0313   0.00    1.0
2024/05/18 00:10:00.000   3655333.3025   1403900.6214   5018038.0417   2   7   0.1267   0.1033   0.0463  -0.0396   0.0373   0.0286   0.00    1.1
2024/05/18 00:10:30.000   3655333.3076   1403900.5960   5018038.0477   2   7   0.1211   0.1000   0.0436  -0.0426   0.0357   0.0262   0.00    1.2
2024/05/18 00:11:00.000   3655333.3106   1403900.5913   5018038.0443   2   7   0.1160   0.0969   0.0412  -0.0449   0.0343   0.0241   0.00    1.3
2024/05/18 00:11:30.000   3655333.3184   1403900.5913   5018038.0466   2   7   0.1113   0.0941   0.0390  -0.0465   0.0330   0.0221   0.00    1.2
2024/05/18 00:12:00.000   3655333.3177   1403900.5714   5018038.0460   2   7   0.1070   0.0914   0.0371  -0.0478   0.0318   0.0204   0.00    1.1
2024/05/18 00:12:30.000   3655333.3247   1403900.5754   5018038.0547   2   7   0.1030   0.0889   0.0354  -0.0486   0.0307   0.0187   0.00    1.1
2024/05/18 00:13:00.000   3655333.3136   1403900.5780   5018038.0555   2   7   0.0993   0.0866   0.0338  -0.0493   0.0297   0.0172   0.00    1.1
2024/05/18 00:13:30.000   3655333.3302   1403900.5941   5018038.0576   2   7   0.0959   0.0844   0.0324  -0.0497   0.0288   0.0159   0.00    1.0
2024/05/18 00:14:00.000   3655333.3265   1403900.5797   5018038.0577   2   7   0.0927   0.0824   0.0311  -0.0499   0.0279   0.0146   0.00    1.0
2024/05/18 00:14:30.000   3655333.3305   1403900.5820   5018038.0511   2   7   0.0897   0.0804   0.0300  -0.0501   0.0271   0.0134   0.00    1.0
2024/05/18 00:15:00.000   3655333.3332   1403900.5822   5018038.0606   2   7   0.0869   0.0786   0.0289  -0.0501   0.0263   0.0124   0.00    1.0
2024/05/18 00:15:30.000   3655333.3173   1403900.5831   5018038.0654   2   7   0.0843   0.0769   0.0279  -0.0500   0.0256   0.0114   0.00    1.1
2024/05/18 00:16:00.000   3655333.2931   1403900.5983   5018038.0674   2   7   0.0819   0.0752   0.0270  -0.0498   0.0249   0.0104   0.00    1.1
2024/05/18 00:16:30.000   3655333.2844   1403900.6074   5018038.0659   2   7   0.0796   0.0737   0.0262  -0.0496   0.0243   0.0096   0.00    1.2
2024/05/18 00:17:00.000   3655333.2822   1403900.6194   5018038.0622   2   7   0.0774   0.0722   0.0254  -0.0493   0.0237   0.0087   0.00    1.2
2024/05/18 00:17:30.000   3655333.2764   1403900.6323   5018038.0587   2   7   0.0754   0.0708   0.0247  -0.0490   0.0232   0.0080   0.00    1.2
2024/05/18 00:18:00.000   3655333.2799   1403900.6436   5018038.0593   2   7   0.0735   0.0694   0.0241  -0.0487   0.0226   0.0072   0.00    1.3
2024/05/18 00:18:30.000   3655333.2704   1403900.6435   5018038.0534   2   7   0.0717   0.0682   0.0235  -0.0483   0.0221   0.0066   0.00    1.3
2024/05/18 00:19:00.000   3655333.2675   1403900.6477   5018038.0565   2   7   0.0699   0.0669   0.0230  -0.0479   0.0216   0.0059   0.00    1.4
2024/05/18 00:19:30.000   3655333.2668   1403900.6568   5018038.0601   2   7   0.0683   0.0657   0.0225  -0.0475   0.0211   0.0053   0.00    1.4
2024/05/18 00:20:00.000   3655333.2661   1403900.6625   5018038.0571   2   7   0.0668   0.0646   0.0220  -0.0471   0.0207   0.0047   0.00    1.4
2024/05/18 00:20:30.000   3655333.2585   1403900.6789   5018038.0616   2   7   0.0653   0.0635   0.0215  -0.0466   0.0203   0.0042   0.00    1.4
2024/05/18 00:21:00.000   3655333.2418   1403900.6897   5018038.0568   2   7   0.0639   0.0625   0.0211  -0.0462   0.0199   0.0036   0.00    1.4
2024/05/18 00:21:30.000   3655333.2454   1403900.7028   5018038.0632   2   7   0.0626   0.0614   0.0207  -0.0457   0.0195   0.0030   0.00    1.5
2024/05/18 00:22:00.000   3655333.2233   1403900.7040   5018038.0503   2   7   0.0613   0.0605   0.0204  -0.0452   0.0191   0.0025   0.00    1.5
2024/05/18 00:22:30.000   3655333.2164   1403900.7053   5018038.0539   2   7   0.0601   0.0595   0.0201  -0.0448   0.0188   0.0019   0.00    1.5
2024/05/18 00:23:00.000   3655333.2135   1403900.7191   5018038.0622   2   7   0.0589   0.0586   0.0197  -0.0443   0.0185   0.0011   0.00    1.6
2024/05/18 00:23:30.000   3655333.2030   1403900.7259   5018038.0498   2   7   0.0578   0.0578   0.0195  -0.0439   0.0181  -0.0005   0.00    1.6
2024/05/18 00:24:00.000   3655333.1871   1403900.7272   5018038.0498   2   7   0.0567   0.0569   0.0192  -0.0434   0.0178  -0.0014   0.00    1.6
2024/05/18 00:24:30.000   3655333.1704   1403900.7423   5018038.0564   2   7   0.0557   0.0561   0.0189  -0.0429   0.0175  -0.0017   0.00    1.7
2024/05/18 00:25:00.000   3655333.1520   1403900.7551   5018038.0534   2   7   0.0547   0.0553   0.0187  -0.0425   0.0172  -0.0021   0.00    1.7
2024/05/18 00:25:30.000   3655333.1516   1403900.7710   5018038.0574   2   7   0.0537   0.0545   0.0185  -0.0420   0.0169  -0.0022   0.00    1.8
2024/05/18 00:26:00.000   3655333.1420   1403900.7805   5018038.0549   2   7   0.0528   0.0538   0.0182  -0.0416   0.0167  -0.0023   0.00    1.7
2024/05/18 00:26:30.000   3655333.1404   1403900.7860   5018038.0548   2   7   0.0520   0.0531   0.0181  -0.0411   0.0164  -0.0024   0.00    1.6
2024/05/18 00:27:00.000   3655333.1390   1403900.7918   5018038.0614   2   7   0.0511   0.0524   0.0179  -0.0407   0.0162  -0.0024   0.00    1.5
2024/05/18 00:27:30.000   3655333.1248   1403900.7932   5018038.0490   2   6   0.0504   0.0519   0.0196  -0.0402   0.0170   0.0039   0.00    1.2
2024/05/18 00:28:00.000   3655333.1264   1403900.7968   5018038.0532   2   7   0.0501   0.0514   0.0194  -0.0400   0.0168   0.0039   0.00    1.2
2024/05/18 00:28:30.000   3655333.1298   1403900.8027   5018038.0483   2   7   0.0497   0.0509   0.0179  -0.0399   0.0166  -0.0033   0.00    1.1
2024/05/18 00:29:00.000   3655333.1474   1403900.8028   5018038.0551   2   7   0.0494   0.0505   0.0173  -0.0398   0.0164  -0.0042   0.00    1.1
2024/05/18 00:29:30.000   3655333.1504   1403900.8040   5018038.0530   2   7   0.0491   0.0500   0.0168  -0.0397   0.0162  -0.0045   0.00    1.0
2024/05/18 00:30:00.000   3655333.1640   1403900.8117   5018038.0554   2   7   0.0488   0.0496   0.0166  -0.0395   0.0160  -0.0045   0.00    1.0
2024/05/18 00:30:30.000   3655333.1728   1403900.8180   5018038.0577   2   7   0.0485   0.0491   0.0163  -0.0394   0.0158  -0.0045   0.00    1.1
2024/05/18 00:31:00.000   3655333.1814   1403900.8192   5018038.0548   2   7   0.0482   0.0487   0.0161  -0.0392   0.0156  -0.0044   0.00    1.2
2024/05/18 00:31:30.000   3655333.1910   1403900.8240   5018038.0519   2   7   0.0479   0.0483   0.0159  -0.0391   0.0154  -0.0043   0.00    1.3
2024/05/18 00:32:00.000   3655333.1972   1403900.8354   5018038.0495   2   7   0.0476   0.0480   0.0157  -0.0390   0.0152  -0.0041   0.00    1.5
2024/05/18 00:32:30.000   3655333.2148   1403900.8457   5018038.0467   2   7   0.0473   0.0476   0.0156  -0.0388   0.0151  -0.0040   0.00    1.7
2024/05/18 00:33:00.000   3655333.2167   1403900.8474   5018038.0454   2   7   0.0470   0.0472   0.0154  -0.0386   0.0149  -0.0037   0.00    1.9
2024/05/18 00:33:30.000   3655333.2337   1403900.8522   5018038.0427   2   7   0.0467   0.0469   0.0153  -0.0384   0.0148  -0.0036   0.00    2.2
2024/05/18 00:34:00.000   3655333.8731   1403900.3233   5018037.9532   1   7   0.0152   0.0081   0.0125   0.0084   0.0057   0.0088   0.00    2.5
2024/05/18 00:34:30.000   3655333.8771   1403900.3251   5018037.9615   1   7   0.0152   0.0080   0.0124   0.0085   0.0057   0.0087   0.00    2.9
2024/05/18 00:35:00.000   3655333.8749   1403900.3208   5018037.9556   1   7   0.0152   0.0081   0.0124   0.0085   0.0057   0.0087   0.00    3.3
2024/05/18 00:35:30.000   3655333.8743   1403900.3208   5018037.9585   1   7   0.0152   0.0081   0.0124   0.0086   0.0057   0.0086   0.00    3.6
2024/05/18 00:36:00.000   3655333.3176   1403900.8756   5018038.0541   2   8   0.0450   0.0453   0.0147  -0.0375   0.0139  -0.0022   0.00    1.2
2024/05/18 00:36:30.000   3655333.3251   1403900.8731   5018038.0513   2   9   0.0440   0.0448   0.0145  -0.0376   0.0135  -0.0042   0.00    1.2
2024/05/18 00:37:00.000   3655333.3475   1403900.8784   5018038.0544   2   9   0.0434   0.0444   0.0141  -0.0375   0.0131  -0.0051   0.00    1.3
2024/05/18 00:37:30.000   3655333.3743   1403900.8844   5018038.0601   2   9   0.0429   0.0440   0.0139  -0.0373   0.0128  -0.0054   0.00    1.6
2024/05/18 00:38:00.000   3655333.3964   1403900.8842   5018038.0581   2   9   0.0424   0.0436   0.0138  -0.0371   0.0126  -0.0055   0.00    1.7
2024/05/18 00:38:30.000   3655333.4122   1403900.8867   5018038.0565   2   9   0.0420   0.0433   0.0137  -0.0369   0.0124  -0.0055   0.00    2.0
2024/05/18 00:39:00.000   3655333.4364   1403900.8824   5018038.0511   2   9   0.0415   0.0430   0.0136  -0.0367   0.0122  -0.0055   0.00    2.3
2024/05/18 00:39:30.000   3655333.8425   1403900.3045   5018037.9613   1   9   0.0110   0.0058   0.0113   0.0043   0.0026   0.0054   0.00    2.6
2024/05/18 00:40:00.000   3655333.8517   1403900.3077   5018037.9594   1   9   0.0110   0.0058   0.0113   0.0042   0.0026   0.0053   0.00    2.7
2024/05/18 00:40:30.000   3655333.8554   1403900.3110   5018037.9726   1   9   0.0110   0.0058   0.0113   0.0043   0.0026   0.0053   0.00    2.8
2024/05/18 00:41:00.000   3655333.8411   1403900.3030   5018037.9681   1   9   0.0110   0.0057   0.0113   0.0043   0.0027   0.0052   0.00    2.9
2024/05/18 00:41:30.000   3655333.8626   1403900.3110   5018037.9686   1   9   0.0109   0.0057   0.0114   0.0043   0.0028   0.0051   0.00    2.8
2024/05/18 00:42:00.000   3655333.8537   1403900.3075   5018037.9680   1   9   0.0109   0.0059   0.0113   0.0042   0.0025   0.0051   0.00    2.8
2024/05/18 00:42:30.000   3655333.8493   1403900.3050   5018037.9640   1   9   0.0109   0.0057   0.0113   0.0043   0.0025   0.0050   0.00    2.8
2024/05/18 00:43:00.000   3655333.8522   1403900.3015   5018037.9679   1   9   0.0109   0.0057   0.0113   0.0042   0.0027   0.0050   0.00    2.8
2024/05/18 00:43:30.000   3655333.8590   1403900.3037   5018037.9688   1   9   0.0109   0.0057   0.0113   0.0043   0.0028   0.0049   0.00    2.6
2024/05/18 00:44:00.000   3655333.8518   1403900.2974   5018037.9638   1   9   0.0108   0.0058   0.0113   0.0042   0.0027   0.0048   0.00    2.5
2024/05/18 00:44:30.000   3655333.6135   1403900.8731   5018038.0409   2   9   0.0360   0.0389   0.0130  -0.0329   0.0106  -0.0045   0.00    2.4
2024/05/18 00:45:00.000   3655333.6225   1403900.8787   5018038.0352   2   9   0.0355   0.0384   0.0129  -0.0325   0.0104  -0.0044   0.00    2.1
2024/05/18 00:45:30.000   3655333.6344   1403900.8779   5018038.0349   2   9   0.0349   0.0380   0.0129  -0.0321   0.0103  -0.0043   0.00    1.9
2024/05/18 00:46:00.000   3655333.6418   1403900.8780   5018038.0370   2   9   0.0344   0.0376   0.0129  -0.0316   0.0102  -0.0041   0.00    1.7
2024/05/18 00:46:30.000   3655333.6438   1403900.8799   5018038.0371   2   9   0.0339   0.0372   0.0129  -0.0312   0.0100  -0.0039   0.00    1.6
2024/05/18 00:47:00.000   3655333.6530   1403900.8817   5018038.0411   2   9   0.0333   0.0367   0.0128  -0.0307   0.0099  -0.0038   0.00    1.4
2024/05/18 00:47:30.000   3655333.6666   1403900.8916   5018038.0278   2   9   0.0327   0.0363   0.0128  -0.0303   0.0098  -0.0036   0.00    1.3
2024/05/18 00:48:00.000   3655333.6658   1403900.8914   5018038.0352   2   9   0.0322   0.0358   0.0128  -0.0298   0.0096  -0.0034   0.00    1.1
2024/05/18 00:48:30.000   3655333.6779   1403900.8926   5018038.0365   2   9   0.0316   0.0354   0.0128  -0.0293   0.0095  -0.0033   0.00    1.0
2024/05/18 00:49:00.000   3655333.6765   1403900.8892   5018038.0360   2   9   0.0311   0.0349   0.0128  -0.0288   0.0094  -0.0030   0.00    1.0
2024/05/18 00:49:30.000   3655333.6900   1403900.8907   5018038.0371   2   9   0.0306   0.0344   0.0127  -0.0283   0.0093  -0.0029   0.00    1.1
2024/05/18 00:50:00.000   3655333.6997   1403900.8952   5018038.0364   2   9   0.0300   0.0340   0.0127  -0.0279   0.0091  -0.0027   0.00    1.2
2024/05/18 00:50:30.000   3655333.7000   1403900.8980   5018038.0356   2   9   0.0295   0.0335   0.0127  -0.0274   0.0090  -0.0024   0.00    1.3
2024/05/18 00:51:00.000   3655333.7065   1403900.9102   5018038.0398   2   9   0.0289   0.0331   0.0127  -0.0269   0.0089  -0.0021   0.00    1.4
2024/05/18 00:51:30.000   3655333.7059   1403900.9032   5018038.0372   2   9   0.0284   0.0326   0.0127  -0.0264   0.0087  -0.0016   0.00    1.5
2024/05/18 00:52:00.000   3655333.7190   1403900.9171   5018038.0422   2   9   0.0280   0.0322   0.0127  -0.0259   0.0085  -0.0016   0.00    1.6
2024/05/18 00:52:30.000   3655333.7148   1403900.9143   5018038.0424   2   9   0.0274   0.0317   0.0127  -0.0255   0.0084  -0.0010   0.00    1.7
2024/05/18 00:53:00.000   3655333.7157   1403900.9176   5018038.0399   2   9   0.0269   0.0312   0.0127  -0.0250   0.0084  -0.0002   0.00    1.8
2024/05/18 00:53:30.000   3655333.7262   1403900.9345   5018038.0382   2   9   0.0265   0.0308   0.0127  -0.0245   0.0082   0.0013   0.00    2.0
2024/05/18 00:54:00.000   3655333.7251   1403900.9332   5018038.0437   2   9   0.0259   0.0303   0.0128  -0.0240   0.0081   0.0016   0.00    2.1
2024/05/18 00:54:30.000   3655333.7163   1403900.9363   5018038.0422   2   9   0.0255   0.0299   0.0128  -0.0235   0.0080   0.0018   0.00    2.1
2024/05/18 00:55:00.000   3655333.7118   1403900.9374   5018038.0454   2   9   0.0250   0.0295   0.0128  -0.0231   0.0079   0.0022   0.00    2.2
2024/05/18 00:55:30.000   3655333.7093   1403900.9421   5018038.0495   2   9   0.0246   0.0290   0.0128  -0.0226   0.0077   0.0024   0.00    2.3
2024/05/18 00:56:00.000   3655333.7074   1403900.9439   5018038.0442   2   9   0.0241   0.0285   0.0128  -0.0222   0.0077   0.0025   0.00    2.4
2024/05/18 00:56:30.000   3655333.6573   1403900.9639   5018037.9817   1   9   0.0105   0.0054   0.0119   0.0042   0.0033   0.0038   0.00    2.5
2024/05/18 00:57:00.000   3655333.6523   1403900.9599   5018037.9838   1   9   0.0105   0.0055   0.0119   0.0043   0.0030   0.0038   0.00    2.6
2024/05/18 00:57:30.000   3655333.6666   1403900.9644   5018037.9880   1   9   0.0105   0.0056   0.0119   0.0043   0.0030   0.0037   0.00    2.7
2024/05/18 00:58:00.000   3655333.6604   1403900.9571   5018037.9826   1   9   0.0105   0.0055   0.0120   0.0042   0.0030   0.0038   0.00    2.8
2024/05/18 00:58:30.000   3655333.6685   1403900.9572   5018037.9610   1   8   0.0107   0.0057   0.0154   0.0039   0.0047  -0.0028   0.00   11.7
2024/05/18 00:59:00.000   3655333.6555   1403900.9538   5018037.9671   1   8   0.0107   0.0058   0.0154   0.0037   0.0047  -0.0027   0.00   11.5
2024/05/18 00:59:30.000   3655333.6483   1403900.9476   5018037.9704   1   8   0.0107   0.0056   0.0154   0.0039   0.0047  -0.0027   0.00   11.3
2024/05/18 01:00:00.000   3655333.6510   1403900.9452   5018037.9626   1   8   0.0107   0.0057   0.0154   0.0039   0.0047  -0.0026   0.00   10.9
2024/05/18 01:00:30.000   3655333.6496   1403900.9457   5018037.9636   1   8   0.0106   0.0058   0.0154   0.0040   0.0046  -0.0024   0.00   10.4
2024/05/18 01:01:00.000   3655333.6421   1403900.9391   5018037.9609   1   8   0.0107   0.0057   0.0154   0.0038   0.0046  -0.0022   0.00    9.9
2024/05/18 01:01:30.000   3655333.6349   1403900.9387   5018037.9583   1   8   0.0106   0.0058   0.0154   0.0039   0.0047  -0.0020   0.00    9.4
2024/05/18 01:02:00.000   3655333.6433   1403900.9425   5018037.9583   1   8   0.0106   0.0057   0.0154   0.0038   0.0046  -0.0019   0.00    8.9
2024/05/18 01:02:30.000   3655333.6421   1403900.9420   5018037.9553   1   8   0.0105   0.0058   0.0154   0.0038   0.0046  -0.0017   0.00    8.3
2024/05/18 01:03:00.000   3655333.6338   1403900.9407   5018037.9551   1   8   0.0105   0.0060   0.0154   0.0039   0.0048  -0.0015   0.00    7.8
2024/05/18 01:03:30.000   3655333.6308   1403900.9422   5018037.9594   1   8   0.0105   0.0057   0.0154   0.0038   0.0047  -0.0011   0.00    7.4
2024/05/18 01:04:00.000   3655333.6265   1403900.9382   5018037.9521   1   8   0.0105   0.0058   0.0154   0.0039   0.0046  -0.0007   0.00    6.9
2024/05/18 01:04:30.000   3655333.6229   1403900.9391   5018037.9538   1   8   0.0104   0.0058   0.0154   0.0040   0.0047   0.0007   0.00    6.5
2024/05/18 01:05:00.000   3655333.6198   1403900.9428   5018037.9579   1   8   0.0104   0.0056   0.0154   0.0040   0.0047   0.0011   0.00    6.1
2024/05/18 01:05:30.000   3655333.6121   1403900.9394   5018037.9587   1   8   0.0103   0.0060   0.0154   0.0041   0.0048   0.0014   0.00    5.7
2024/05/18 01:06:00.000   3655333.6134   1403900.9329   5018037.9398   1   8   0.0104   0.0056   0.0154   0.0040   0.0047   0.0017   0.00    5.4
2024/05/18 01:06:30.000   3655333.6082   1403900.9361   5018037.9481   1   8   0.0103   0.0057   0.0155   0.0040   0.0047   0.0020   0.00    5.1
2024/05/18 01:07:00.000   3655333.6076   1403900.9350   5018037.9456   1   8   0.0103   0.0054   0.0154   0.0041   0.0047   0.0021   0.00    4.8
2024/05/18 01:07:30.000   3655333.6016   1403900.9324   5018037.9473   1   8   0.0102   0.0055   0.0155   0.0041   0.0048   0.0024   0.00    4.6
2024/05/18 01:08:00.000   3655333.6012   1403900.9343   5018037.9461   1   8   0.0103   0.0055   0.0155   0.0040   0.0047   0.0026   0.00    4.4
2024/05/18 01:08:30.000   3655333.5326   1403901.0068   5018037.9937   2   9   0.0167   0.0199   0.0168  -0.0128   0.0071   0.0062   0.00    1.1
2024/05/18 01:09:00.000   3655333.5296   1403901.0020   5018037.9879   2   9   0.0165   0.0195   0.0155  -0.0125   0.0070   0.0065   0.00    1.2
2024/05/18 01:09:30.000   3655333.5313   1403900.9996   5018037.9880   2   9   0.0163   0.0193   0.0151  -0.0122   0.0070   0.0067   0.00    1.2
2024/05/18 01:10:00.000   3655333.5385   1403900.9982   5018037.9910   2   9   0.0161   0.0190   0.0148  -0.0119   0.0071   0.0068   0.00    1.3
2024/05/18 01:10:30.000   3655333.5509   1403900.9993   5018037.9899   2   9   0.0159   0.0189   0.0147  -0.0116   0.0070   0.0070   0.00    1.3
2024/05/18 01:11:00.000   3655333.5485   1403900.9923   5018037.9882   2   9   0.0157   0.0186   0.0146  -0.0113   0.0071   0.0070   0.00    1.4
2024/05/18 01:11:30.000   3655333.5437   1403900.9853   5018037.9807   2   9   0.0156   0.0184   0.0145  -0.0110   0.0071   0.0071   0.00    1.4
2024/05/18 01:12:00.000   3655333.5514   1403900.9819   5018037.9729   2   9   0.0154   0.0182   0.0145  -0.0108   0.0071   0.0072   0.00    1.5
2024/05/18 01:12:30.000   3655333.5536   1403900.9827   5018037.9650   2   9   0.0153   0.0179   0.0144  -0.0105   0.0071   0.0073   0.00    1.5
2024/05/18 01:13:00.000   3655333.5469   1403900.9747   5018037.9519   2   9   0.0151   0.0177   0.0144  -0.0102   0.0071   0.0074   0.00    1.5
2024/05/18 01:13:30.000   3655333.5556   1403900.9790   5018037.9522   2   9   0.0150   0.0175   0.0144  -0.0099   0.0071   0.0074   0.00    1.5
2024/05/18 01:14:00.000   3655333.5556   1403900.9771   5018037.9500   2   9   0.0148   0.0173   0.0144  -0.0097   0.0071   0.0076   0.00    1.5
2024/05/18 01:14:30.000   3655333.5557   1403900.9796   5018037.9520   2   9   0.0147   0.0171   0.0144  -0.0094   0.0072   0.0076   0.00    1.5
2024/05/18 01:15:00.000   3655333.5526   1403900.9794   5018037.9494   2   9   0.0146   0.0169   0.0144  -0.0092   0.0072   0.0077   0.00    1.6
2024/05/18 01:15:30.000   3655333.5552   1403900.9829   5018037.9425   2   9   0.0145   0.0168   0.0144  -0.0090   0.0071   0.0078   0.00    1.6
2024/05/18 01:16:00.000   3655333.5606   1403900.9824   5018037.9416   2   9   0.0144   0.0165   0.0144  -0.0087   0.0071   0.0078   0.00    1.6
2024/05/18 01:16:30.000   3655333.5570   1403900.9890   5018037.9365   2   9   0.0142   0.0163   0.0144  -0.0084   0.0072   0.0079   0.00    1.6
2024/05/18 01:17:00.000   3655333.5507   1403900.9956   5018037.9395   2   9   0.0141   0.0162   0.0144  -0.0082   0.0073   0.0080   0.00    1.5
2024/05/18 01:17:30.000   3655333.5528   1403900.9995   5018037.9346   2   9   0.0140   0.0160   0.0144  -0.0080   0.0072   0.0081   0.00    1.4
2024/05/18 01:18:00.000   3655333.5473   1403901.0030   5018037.9227   2   9   0.0140   0.0158   0.0144  -0.0077   0.0072   0.0082   0.00    1.3
2024/05/18 01:18:30.000   3655333.5526   1403901.0139   5018037.9299   2   9   0.0138   0.0157   0.0145  -0.0075   0.0072   0.0082   0.00    1.2
2024/05/18 01:19:00.000   3655333.5483   1403901.0141   5018037.9135   2   9   0.0138   0.0154   0.0144  -0.0072   0.0073   0.0083   0.00    1.2
2024/05/18 01:19:30.000   3655333.5413   1403901.0188   5018037.9199   2   9   0.0137   0.0153   0.0145  -0.0071   0.0072   0.0083   0.00    1.1
2024/05/18 01:20:00.000   3655333.5417   1403901.0268   5018037.9205   2   9   0.0136   0.0152   0.0144  -0.0068   0.0073   0.0084   0.00    1.1
2024/05/18 01:20:30.000   3655333.5393   1403901.0339   5018037.9180   2   9   0.0135   0.0151   0.0145  -0.0065   0.0074   0.0085   0.00    1.0
2024/05/18 01:21:00.000   3655333.5325   1403901.0366   5018037.9058   2   9   0.0134   0.0149   0.0145  -0.0063   0.0074   0.0086   0.00    1.0
2024/05/18 01:21:30.000   3655333.5365   1403901.0440   5018037.9123   2   9   0.0134   0.0148   0.0145  -0.0061   0.0074   0.0086   0.00    1.1
2024/05/18 01:22:00.000   3655333.5261   1403901.0479   5018037.9113   2   9   0.0133   0.0146   0.0145  -0.0058   0.0073   0.0087   0.00    1.1
2024/05/18 01:22:30.000   3655333.5299   1403901.0559   5018037.9074   2   9   0.0132   0.0145   0.0146  -0.0056   0.0074   0.0088   0.00    1.2
2024/05/18 01:23:00.000   3655333.5312   1403901.0621   5018037.9079   2   9   0.0131   0.0143   0.0146  -0.0053   0.0075   0.0089   0.00    1.2
2024/05/18 01:23:30.000   3655333.5335   1403901.0674   5018037.9013   2   9   0.0131   0.0142   0.0146  -0.0052   0.0074   0.0089   0.00    1.3
2024/05/18 01:24:00.000   3655333.5301   1403901.0701   5018037.8942   2   9   0.0130   0.0141   0.0146  -0.0047   0.0074   0.0090   0.00    1.3
2024/05/18 01:24:30.000   3655333.5227   1403901.0695   5018037.8874   2   9   0.0130   0.0140   0.0146  -0.0047   0.0075   0.0090   0.00    1.4
2024/05/18 01:25:00.000   3655333.5219   1403901.0756   5018037.8890   2   9   0.0129   0.0138   0.0146  -0.0043   0.0075   0.0091   0.00    1.4
2024/05/18 01:25:30.000   3655333.5131   1403901.0691   5018037.8725   2   9   0.0129   0.0137   0.0147  -0.0041   0.0075   0.0092   0.00    1.4
2024/05/18 01:26:00.000   3655333.5158   1403901.0664   5018037.8639   2   9   0.0128   0.0136   0.0147  -0.0038   0.0075   0.0092   0.00    1.5
2024/05/18 01:26:30.000   3655333.5197   1403901.0654   5018037.8643   2   9   0.0128   0.0136   0.0147  -0.0035   0.0076   0.0093   0.00    1.5
2024/05/18 01:27:00.000   3655333.5239   1403901.0676   5018037.8583   2   9   0.0128   0.0134   0.0148  -0.0033   0.0076   0.0094   0.00    1.6
2024/05/18 01:27:30.000   3655333.5190   1403901.0735   5018037.8598   2   9   0.0127   0.0132   0.0148  -0.0028   0.0076   0.0094   0.00    1.6
2024/05/18 01:28:00.000   3655333.5151   1403901.0658   5018037.8528   2   9   0.0127   0.0132   0.0148  -0.0026   0.0076   0.0095   0.00    1.6
2024/05/18 01:28:30.000   3655333.5226   1403901.0693   5018037.8508   2   9   0.0127   0.0131   0.0149  -0.0022   0.0076   0.0096   0.00    1.6
2024/05/18 01:29:00.000   3655333.5209   1403901.0690   5018037.8429   2   9   0.0126   0.0131   0.0149  -0.0021   0.0076   0.0096   0.00    1.6
2024/05/18 01:29:30.000   3655333.5243   1403901.0648   5018037.8392   2   9   0.0126   0.0129   0.0149  -0.0015   0.0077   0.0097   0.00    1.6
2024/05/18 01:30:00.000   3655333.5367   1403901.0753   5018037.8434   2   9   0.0126   0.0128   0.0149  -0.0001   0.0077   0.0098   0.00    1.5
2024/05/18 01:30:30.000   3655333.5217   1403901.0668   5018037.8381   2   9   0.0125   0.0128   0.0149   0.0012   0.0076   0.0098   0.00    1.5
2024/05/18 01:31:00.000   3655333.5313   1403901.0678   5018037.8502   2   9   0.0125   0.0126   0.0150   0.0017   0.0077   0.0099   0.00    1.5
2024/05/18 01:31:30.000   3655333.5113   1403901.0504   5018037.8427   2   9   0.0125   0.0125   0.0150   0.0022   0.0077   0.0099   0.00    1.5
2024/05/18 01:32:00.000   3655333.5238   1403901.0537   5018037.8475   2   9   0.0125   0.0124   0.0151   0.0024   0.0077   0.0100   0.00    1.5
2024/05/18 01:32:30.000   3655333.5379   1403901.0595   5018037.8490   2   9   0.0125   0.0124   0.0151   0.0027   0.0076   0.0101   0.00    1.5
2024/05/18 01:33:00.000   3655333.5333   1403901.0509   5018037.8453   2   9   0.0125   0.0122   0.0151   0.0029   0.0077   0.0101   0.00    1.5
2024/05/18 01:33:30.000   3655333.5407   1403901.0560   5018037.8446   2   9   0.0124   0.0122   0.0152   0.0031   0.0077   0.0102   0.00    1.5
2024/05/18 01:34:00.000   3655333.5424   1403901.0531   5018037.8452   2   9   0.0124   0.0121   0.0152   0.0033   0.0077   0.0103   0.00    1.5
2024/05/18 01:34:30.000   3655333.5576   1403901.0592   5018037.8488   2   9   0.0124   0.0120   0.0152   0.0034   0.0076   0.0103   0.00    1.5
2024/05/18 01:35:00.000   3655333.5445   1403901.0469   5018037.8416   2   9   0.0124   0.0119   0.0152   0.0036   0.0078   0.0104   0.00    1.5
2024/05/18 01:35:30.000   3655333.5447   1403901.0366   5018037.8370   2   9   0.0124   0.0119   0.0154   0.0038   0.0078   0.0104   0.00    1.5
2024/05/18 01:36:00.000   3655333.5411   1403901.0271   5018037.8257   2   9   0.0124   0.0117   0.0153   0.0039   0.0077   0.0105   0.00    1.5
2024/05/18 01:36:30.000   3655333.5590   1403901.0276   5018037.8332   2   9   0.0124   0.0117   0.0154   0.0042   0.0076   0.0106   0.00    1.5
2024/05/18 01:37:00.000   3655333.5625   1403901.0218   5018037.8387   2   9   0.0124   0.0117   0.0154   0.0043   0.0078   0.0107   0.00    1.5
2024/05/18 01:37:30.000   3655333.5727   1403901.0248   5018037.8387   2   9   0.0124   0.0115   0.0154   0.0042   0.0078   0.0107   0.00    1.5
2024/05/18 01:38:00.000   3655333.5636   1403901.0055   5018037.8254   2   9   0.0124   0.0114   0.0154   0.0044   0.0078   0.0108   0.00    1.5
2024/05/18 01:38:30.000   3655333.5738   1403901.0004   5018037.8215   2   9   0.0124   0.0113   0.0155   0.0046   0.0077   0.0108   0.00    1.5
2024/05/18 01:39:00.000   3655333.5821   1403901.0027   5018037.8287   2   9   0.0124   0.0113   0.0155   0.0045   0.0078   0.0109   0.00    1.5
2024/05/18 01:39:30.000   3655333.6021   1403901.0094   5018037.8410   2   9   0.0124   0.0113   0.0156   0.0048   0.0079   0.0109   0.00    1.5
2024/05/18 01:40:00.000   3655333.6026   1403900.9961   5018037.8347   2   9   0.0124   0.0113   0.0156   0.0049   0.0078   0.0110   0.00    1.5
2024/05/18 01:40:30.000   3655333.6242   1403901.0041   5018037.8490   2   9   0.0124   0.0111   0.0157   0.0049   0.0078   0.0111   0.00    1.5
2024/05/18 01:41:00.000   3655333.6169   1403900.9907   5018037.8373   2   9   0.0125   0.0110   0.0157   0.0050   0.0079   0.0111   0.00    1.5
2024/05/18 01:41:30.000   3655333.6311   1403900.9896   5018037.8323   2   9   0.0125   0.0111   0.0158   0.0050   0.0079   0.0112   0.00    1.5
2024/05/18 01:42:00.000   3655333.6209   1403900.9643   5018037.8056   2   9   0.0125   0.0110   0.0158   0.0051   0.0080   0.0112   0.00    1.5
2024/05/18 01:42:30.000   3655333.6473   1403900.9744   5018037.8252   2   9   0.0125   0.0109   0.0159   0.0052   0.0079   0.0113   0.00    1.5
2024/05/18 01:43:00.000   3655333.6386   1403900.9530   5018037.8085   2   9   0.0126   0.0108   0.0159   0.0053   0.0079   0.0113   0.00    1.5
2024/05/18 01:43:30.000   3655333.6476   1403900.9545   5018037.8158   2   9   0.0125   0.0108   0.0160   0.0055   0.0079   0.0115   0.00    1.5
2024/05/18 01:44:00.000   3655333.6575   1403900.9485   5018037.8260   2   9   0.0125   0.0106   0.0160   0.0055   0.0079   0.0115   0.00    1.5
2024/05/18 01:44:30.000   3655333.6685   1403900.9484   5018037.8317   2   9   0.0126   0.0107   0.0161   0.0055   0.0080   0.0116   0.00    1.5
2024/05/18 01:45:00.000   3655333.6764   1403900.9394   5018037.8327   2   8   0.0137   0.0106   0.0180   0.0060   0.0083   0.0134   0.00    1.2
2024/05/18 01:45:30.000   3655333.6780   1403900.9301   5018037.8274   2   8   0.0138   0.0106   0.0180   0.0060   0.0083   0.0135   0.00    1.2
2024/05/18 01:46:00.000   3655333.6952   1403900.9307   5018037.8446   2   8   0.0138   0.0105   0.0181   0.0062   0.0083   0.0136   0.00    1.2
2024/05/18 01:46:30.000   3655333.6907   1403900.9219   5018037.8274   2   8   0.0139   0.0105   0.0182   0.0061   0.0084   0.0137   0.00    1.2
2024/05/18 01:47:00.000   3655333.7028   1403900.9156   5018037.8344   2   8   0.0139   0.0104   0.0182   0.0062   0.0083   0.0138   0.00    1.2
2024/05/18 01:47:30.000   3655333.7064   1403900.9072   5018037.8303   2   8   0.0140   0.0103   0.0184   0.0064   0.0084   0.0139   0.00    1.2
2024/05/18 01:48:00.000   3655333.7224   1403900.9082   5018037.8451   2   8   0.0140   0.0104   0.0184   0.0064   0.0084   0.0140   0.00    1.2
2024/05/18 01:48:30.000   3655333.7119   1403900.8879   5018037.8273   2   8   0.0140   0.0103   0.0185   0.0064   0.0084   0.0140   0.00    1.2
2024/05/18 01:49:00.000   3655333.7027   1403900.8708   5018037.8057   2   8   0.0141   0.0103   0.0186   0.0065   0.0085   0.0141   0.00    1.2
2024/05/18 01:49:30.000   3655333.7035   1403900.8675   5018037.8018   2   8   0.0142   0.0102   0.0187   0.0065   0.0086   0.0142   0.00    1.1
2024/05/18 01:50:00.000   3655333.6887   1403900.8478   5018037.7784   2   8   0.0141   0.0103   0.0187   0.0065   0.0085   0.0143   0.00    1.1
2024/05/18 01:50:30.000   3655333.7084   1403900.8499   5018037.7972   2   8   0.0142   0.0103   0.0188   0.0067   0.0085   0.0144   0.00    1.1
2024/05/18 01:51:00.000   3655333.7048   1403900.8392   5018037.7898   2   8   0.0142   0.0100   0.0189   0.0067   0.0086   0.0144   0.00    1.0
2024/05/18 01:51:30.000   3655333.7106   1403900.8346   5018037.7989   2   8   0.0142   0.0101   0.0189   0.0068   0.0086   0.0145   0.00    1.0
2024/05/18 01:52:00.000   3655333.7113   1403900.8271   5018037.7984   2   8   0.0143   0.0100   0.0190   0.0068   0.0087   0.0145   0.00    1.0
2024/05/18 01:52:30.000   3655333.6976   1403900.8103   5018037.7778   2   8   0.0143   0.0102   0.0190   0.0068   0.0087   0.0146   0.00    1.1
2024/05/18 01:53:00.000   3655333.7236   1403900.8121   5018037.8093   2   8   0.0144   0.0102   0.0191   0.0069   0.0087   0.0147   0.00    1.1
2024/05/18 01:53:30.000   3655333.7147   1403900.7961   5018037.8018   2   8   0.0144   0.0100   0.0191   0.0070   0.0087   0.0148   0.00    1.1
2024/05/18 01:54:00.000   3655333.7208   1403900.7919   5018037.8028   2   8   0.0144   0.0099   0.0192   0.0071   0.0088   0.0148   0.00    1.2
2024/05/18 01:54:30.000   3655333.7096   1403900.7761   5018037.7808   2   8   0.0144   0.0102   0.0193   0.0071   0.0088   0.0149   0.00    1.2
2024/05/18 01:55:00.000   3655333.7203   1403900.7752   5018037.7957   2   8   0.0145   0.0100   0.0193   0.0071   0.0088   0.0149   0.00    1.2
2024/05/18 01:55:30.000   3655333.7280   1403900.7792   5018037.8109   2   8   0.0145   0.0100   0.0194   0.0073   0.0088   0.0150   0.00    1.3
2024/05/18 01:56:00.000   3655333.7323   1403900.7753   5018037.8222   2   8   0.0146   0.0099   0.0194   0.0073   0.0089   0.0151   0.00    1.3
2024/05/18 01:56:30.000   3655333.7347   1403900.7742   5018037.8302   2   8   0.0146   0.0100   0.0195   0.0074   0.0089   0.0151   0.00    1.4
2024/05/18 01:57:00.000   3655333.7150   1403900.7611   5018037.8089   2   8   0.0147   0.0097   0.0195   0.0074   0.0090   0.0152   0.00    1.4
2024/05/18 01:57:30.000   3655333.7171   1403900.7583   5018037.8234   2   8   0.0147   0.0100   0.0196   0.0074   0.0090   0.0152   0.00    1.4
2024/05/18 01:58:00.000   3655333.7321   1403900.7631   5018037.8523   2   8   0.0147   0.0099   0.0196   0.0075   0.0090   0.0153   0.00    1.5
2024/05/18 01:58:30.000   3655333.7416   1403900.7677   5018037.8618   2   8   0.0147   0.0100   0.0196   0.0075   0.0090   0.0153   0.00    1.5
2024/05/18 01:59:00.000   3655333.7281   1403900.7556   5018037.8488   2   8   0.0148   0.0099   0.0197   0.0076   0.0090   0.0153   0.00    1.5
2024/05/18 01:59:30.000   3655333.7352   1403900.7591   5018037.8529   2   8   0.0148   0.0099   0.0197   0.0076   0.0091   0.0153   0.00    1.5
2024/05/18 02:00:00.000   3655333.7172   1403900.7435   5018037.8342   2   8   0.0149   0.0099   0.0197   0.0076   0.0092   0.0154   0.00    1.5
2024/05/18 02:00:30.000   3655333.7372   1403900.7521   5018037.8580   2   8   0.0148   0.0099   0.0197   0.0076   0.0092   0.0154   0.00    1.5
2024/05/18 02:01:00.000   3655333.7347   1403900.7446   5018037.8543   2   8   0.0148   0.0099   0.0197   0.0077   0.0092   0.0155   0.00    1.5
2024/05/18 02:01:30.000   3655333.7666   1403900.7570   5018037.9025   2   8   0.0149   0.0098   0.0197   0.0077   0.0092   0.0155   0.00    1.5
2024/05/18 02:02:00.000   3655333.7651   1403900.7506   5018037.8928   2   8   0.0148   0.0099   0.0197   0.0079   0.0091   0.0155   0.00    1.4
2024/05/18 02:02:30.000   3655333.7794   1403900.7466   5018037.9114   2   8   0.0149   0.0099   0.0197   0.0079   0.0092   0.0156   0.00    1.4
2024/05/18 02:03:00.000   3655333.7881   1403900.7442   5018037.9151   2   8   0.0149   0.0099   0.0197   0.0078   0.0093   0.0155   0.00    1.4
2024/05/18 02:03:30.000   3655333.7847   1403900.7323   5018037.9017   2   8   0.0149   0.0099   0.0197   0.0080   0.0092   0.0156   0.00    1.4
2024/05/18 02:04:00.000   3655333.7725   1403900.7206   5018037.8848   2   8   0.0149   0.0097   0.0197   0.0079   0.0093   0.0155   0.00    1.4
2024/05/18 02:04:30.000   3655333.7515   1403900.7015   5018037.8626   2   8   0.0149   0.0099   0.0196   0.0080   0.0093   0.0156   0.00    1.3
2024/05/18 02:05:00.000   3655333.7522   1403900.6954   5018037.8624   2   8   0.0149   0.0097   0.0196   0.0081   0.0093   0.0155   0.00    1.3
2024/05/18 02:05:30.000   3655333.7462   1403900.6830   5018037.8596   2   8   0.0149   0.0098   0.0196   0.0082   0.0092   0.0155   0.00    1.3
2024/05/18 02:06:00.000   3655333.7546   1403900.6818   5018037.8642   2   8   0.0148   0.0097   0.0195   0.0082   0.0093   0.0155   0.00    1.3
2024/05/18 02:06:30.000   3655333.7661   1403900.6838   5018037.8758   2   9   0.0149   0.0099   0.0195   0.0081   0.0094   0.0155   0.00    1.0
2024/05/18 02:07:00.000   3655333.7804   1403900.6901   5018037.8966   2   9   0.0140   0.0094   0.0187   0.0071   0.0084   0.0145   0.00    1.0
2024/05/18 02:07:30.000   3655333.7959   1403900.6976   5018037.9216   2   9   0.0135   0.0091   0.0184   0.0067   0.0080   0.0141   0.00    1.0
2024/05/18 02:08:00.000   3655333.8116   1403900.7040   5018037.9392   2   9   0.0134   0.0091   0.0182   0.0065   0.0079   0.0138   0.00    1.0
2024/05/18 02:08:30.000   3655333.8247   1403900.7055   5018037.9529   2   9   0.0132   0.0090   0.0180   0.0065   0.0078   0.0137   0.00    1.0
2024/05/18 02:09:00.000   3655333.8255   1403900.7084   5018037.9606   2   9   0.0131   0.0091   0.0179   0.0062   0.0075   0.0137   0.00    1.0
2024/05/18 02:09:30.000   3655333.8504   1403900.7181   5018037.9808   2   9   0.0131   0.0089   0.0178   0.0063   0.0076   0.0136   0.00    1.0
2024/05/18 02:10:00.000   3655333.8426   1403900.7138   5018037.9685   2   9   0.0130   0.0092   0.0177   0.0061   0.0075   0.0135   0.00    1.0
2024/05/18 02:10:30.000   3655333.8443   1403900.7066   5018037.9662   2  10   0.0129   0.0089   0.0176   0.0063   0.0075   0.0134   0.00    1.0
2024/05/18 02:11:00.000   3655333.8361   1403900.7009   5018037.9513   2  10   0.0126   0.0086   0.0166   0.0059   0.0066   0.0128   0.00    1.0
2024/05/18 02:11:30.000   3655333.8270   1403900.6937   5018037.9406   2  10   0.0125   0.0084   0.0162   0.0058   0.0063   0.0125   0.00    1.0
2024/05/18 02:12:00.000   3655333.8226   1403900.6905   5018037.9369   2  10   0.0124   0.0085   0.0159   0.0055   0.0062   0.0124   0.00    1.0
2024/05/18 02:12:30.000   3655333.8191   1403900.6871   5018037.9384   2  10   0.0123   0.0081   0.0158   0.0057   0.0061   0.0123   0.00    1.0
2024/05/18 02:13:00.000   3655333.8160   1403900.6872   5018037.9302   2  10   0.0123   0.0082   0.0156   0.0055   0.0062   0.0122   0.00    1.0
2024/05/18 02:13:30.000   3655333.8220   1403900.6934   5018037.9331   2  10   0.0122   0.0084   0.0155   0.0053   0.0060   0.0121   0.00    1.0
2024/05/18 02:14:00.000   3655333.8352   1403900.7003   5018037.9434   2  10   0.0122   0.0084   0.0154   0.0054   0.0058   0.0121   0.00    1.0
2024/05/18 02:14:30.000   3655333.8245   1403900.6899   5018037.9311   2  10   0.0122   0.0084   0.0153   0.0055   0.0057   0.0120   0.00    1.0
2024/05/18 02:15:00.000   3655333.8165   1403900.6834   5018037.9249   2  10   0.0121   0.0085   0.0152   0.0053   0.0056   0.0119   0.00    1.0
2024/05/18 02:15:30.000   3655333.8241   1403900.6834   5018037.9313   2  10   0.0120   0.0082   0.0151   0.0055   0.0057   0.0118   0.00    1.0
2024/05/18 02:16:00.000   3655333.8182   1403900.6786   5018037.9216   2  10   0.0120   0.0081   0.0150   0.0055   0.0058   0.0118   0.00    1.0
2024/05/18 02:16:30.000   3655333.8245   1403900.6791   5018037.9296   2  10   0.0120   0.0083   0.0150   0.0055   0.0055   0.0117   0.00    1.0
2024/05/18 02:17:00.000   3655333.8123   1403900.6784   5018037.9188   2  10   0.0120   0.0081   0.0149   0.0055   0.0058   0.0116   0.00    1.0
2024/05/18 02:17:30.000   3655333.8216   1403900.6789   5018037.9311   2  10   0.0120   0.0082   0.0148   0.0054   0.0054   0.0116   0.00    1.0
2024/05/18 02:18:00.000   3655333.8289   1403900.6819   5018037.9392   2  10   0.0119   0.0082   0.0147   0.0054   0.0055   0.0115   0.00    1.0
2024/05/18 02:18:30.000   3655333.8337   1403900.6867   5018037.9422   2  10   0.0119   0.0083   0.0146   0.0053   0.0053   0.0115   0.00    1.0
2024/05/18 02:19:00.000   3655333.8438   1403900.6881   5018037.9497   2  10   0.0119   0.0083   0.0146   0.0053   0.0053   0.0114   0.00    1.0
2024/05/18 02:19:30.000   3655333.8457   1403900.6871   5018037.9538   2  10   0.0118   0.0082   0.0145   0.0054   0.0053   0.0114   0.00    1.0
2024/05/18 02:20:00.000   3655333.8451   1403900.6892   5018037.9477   2  10   0.0118   0.0083   0.0144   0.0054   0.0052   0.0114   0.00    1.0
2024/05/18 02:20:30.000   3655333.8469   1403900.6938   5018037.9532   2  10   0.0118   0.0081   0.0144   0.0054   0.0052   0.0113   0.00    1.0
2024/05/18 02:21:00.000   3655333.8563   1403900.6956   5018037.9563   2  10   0.0117   0.0079   0.0143   0.0056   0.0054   0.0112   0.00    1.0
2024/05/18 02:21:30.000   3655333.8556   1403900.6918   5018037.9565   2  10   0.0117   0.0079   0.0143   0.0056   0.0052   0.0112   0.00    1.0
2024/05/18 02:22:00.000   3655333.8561   1403900.6830   5018037.9561   2  10   0.0117   0.0080   0.0141   0.0054   0.0051   0.0112   0.00    1.0
2024/05/18 02:22:30.000   3655333.8522   1403900.6825   5018037.9588   2  10   0.0116   0.0081   0.0141   0.0055   0.0049   0.0111   0.00    1.0
2024/05/18 02:23:00.000   3655333.8425   1403900.6766   5018037.9472   2  10   0.0117   0.0080   0.0140   0.0054   0.0051   0.0110   0.00    1.0
2024/05/18 02:23:30.000   3655333.8561   1403900.6803   5018037.9609   2  10   0.0116   0.0080   0.0139   0.0055   0.0050   0.0110   0.00    1.1
2024/05/18 02:24:00.000   3655333.8606   1403900.6807   5018037.9704   2  10   0.0115   0.0081   0.0139   0.0055   0.0049   0.0109   0.00    1.1
2024/05/18 02:24:30.000   3655333.8601   1403900.6857   5018037.9684   2  10   0.0116   0.0084   0.0139   0.0054   0.0047   0.0109   0.00    1.1
2024/05/18 02:25:00.000   3655333.8500   1403900.6811   5018037.9685   2  10   0.0115   0.0079   0.0138   0.0057   0.0050   0.0108   0.00    1.1
2024/05/18 02:25:30.000   3655333.8600   1403900.6832   5018037.9821   2  10   0.0114   0.0081   0.0137   0.0055   0.0047   0.0108   0.00    1.1
2024/05/18 02:26:00.000   3655333.8648   1403900.6807   5018037.9919   2  10   0.0115   0.0080   0.0136   0.0056   0.0048   0.0107   0.00    1.1
2024/05/18 02:26:30.000   3655333.8635   1403900.6757   5018037.9912   2  10   0.0115   0.0083   0.0136   0.0053   0.0047   0.0106   0.00    1.1
2024/05/18 02:27:00.000   3655333.8707   1403900.6757   5018037.9980   2  10   0.0114   0.0082   0.0135   0.0055   0.0047   0.0106   0.00    1.1
2024/05/18 02:27:30.000   3655333.8785   1403900.6765   5018038.0042   2  10   0.0114   0.0081   0.0135   0.0055   0.0047   0.0106   0.00    1.1
2024/05/18 02:28:00.000   3655333.8820   1403900.6786   5018038.0040   2  10   0.0113   0.0082   0.0134   0.0056   0.0047   0.0105   0.00    1.1
2024/05/18 02:28:30.000   3655333.8433   1403900.6810   5018038.0094   2  10   0.0505   0.0248   0.0710   0.0176   0.0143   0.0515  30.00    1.1
2024/05/18 02:29:30.000   3655333.9054   1403900.6741   5018038.0147   2  10   0.0113   0.0079   0.0132   0.0056   0.0046   0.0104   0.00    1.1
2024/05/18 02:30:00.000   3655333.9100   1403900.6753   5018038.0206   2  10   0.0113   0.0082   0.0133   0.0055   0.0044   0.0103   0.00    1.1
2024/05/18 02:30:30.000   3655333.9100   1403900.6724   5018038.0269   2  10   0.0113   0.0081   0.0131   0.0058   0.0046   0.0103   0.00    1.1
2024/05/18 02:31:00.000   3655333.9097   1403900.6749   5018038.0253   2  10   0.0112   0.0081   0.0131   0.0055   0.0047   0.0102   0.00    1.1
2024/05/18 02:31:30.000   3655333.9079   1403900.6773   5018038.0278   2  10   0.0113   0.0081   0.0131   0.0057   0.0044   0.0102   0.00    1.1
2024/05/18 02:32:00.000   3655333.9049   1403900.6784   5018038.0261   2  10   0.0113   0.0081   0.0130   0.0056   0.0045   0.0101   0.00    1.1
2024/05/18 02:32:30.000   3655333.8968   1403900.6817   5018038.0302   2  10   0.0112   0.0081   0.0129   0.0056   0.0046   0.0101   0.00    1.1
2024/05/18 02:33:00.000   3655333.8928   1403900.6867   5018038.0347   2  10   0.0111   0.0081   0.0128   0.0056   0.0043   0.0101   0.00    1.1
2024/05/18 02:33:30.000   3655333.8968   1403900.6886   5018038.0374   2  10   0.0111   0.0081   0.0127   0.0056   0.0045   0.0100   0.00    1.0
2024/05/18 02:34:00.000   3655333.8915   1403900.6856   5018038.0336   2  10   0.0111   0.0081   0.0128   0.0057   0.0044   0.0099   0.00    1.0
2024/05/18 02:34:30.000   3655333.8988   1403900.6881   5018038.0286   2  10   0.0111   0.0082   0.0127   0.0056   0.0041   0.0099   0.00    1.0
2024/05/18 02:35:00.000   3655333.9019   1403900.6945   5018038.0349   2  10   0.0111   0.0080   0.0126   0.0059   0.0045   0.0099   0.00    1.0
2024/05/18 02:35:30.000   3655333.9069   1403900.6964   5018038.0384   2   9   0.0119   0.0089   0.0133   0.0071   0.0061   0.0107   0.00    1.1
2024/05/18 02:36:00.000   3655333.9018   1403900.6999   5018038.0296   2   9   0.0119   0.0089   0.0132   0.0071   0.0060   0.0106   0.00    1.1
2024/05/18 02:36:30.000   3655333.8948   1403900.7032   5018038.0248   2   9   0.0118   0.0090   0.0131   0.0071   0.0059   0.0106   0.00    1.1
2024/05/18 02:37:00.000   3655333.8967   1403900.7098   5018038.0381   2   9   0.0118   0.0090   0.0130   0.0071   0.0058   0.0105   0.00    1.1
2024/05/18 02:37:30.000   3655333.8792   1403900.7147   5018038.0196   2   9   0.0117   0.0091   0.0130   0.0071   0.0058   0.0105   0.00    1.1
2024/05/18 02:38:00.000   3655333.8800   1403900.7117   5018038.0195   2   9   0.0118   0.0091   0.0130   0.0070   0.0056   0.0104   0.00    1.1
2024/05/18 02:38:30.000   3655333.8837   1403900.7133   5018038.0192   2   9   0.0117   0.0090   0.0129   0.0072   0.0056   0.0103   0.00    1.1
2024/05/18 02:39:00.000   3655333.8763   1403900.7112   5018038.0152   2   9   0.0117   0.0090   0.0128   0.0072   0.0057   0.0103   0.00    1.1
2024/05/18 02:39:30.000   3655333.8796   1403900.7128   5018038.0170   2   9   0.0117   0.0090   0.0128   0.0071   0.0056   0.0102   0.00    1.1
2024/05/18 02:40:00.000   3655333.8764   1403900.7169   5018038.0160   2   9   0.0117   0.0091   0.0128   0.0071   0.0055   0.0102   0.00    1.1
2024/05/18 02:40:30.000   3655333.8677   1403900.7246   5018037.9992   2   9   0.0116   0.0091   0.0127   0.0070   0.0055   0.0102   0.00    1.0
2024/05/18 02:41:00.000   3655333.8681   1403900.7295   5018037.9987   2   9   0.0116   0.0091   0.0126   0.0070   0.0055   0.0101   0.00    1.0
2024/05/18 02:41:30.000   3655333.8699   1403900.7384   5018038.0133   2   9   0.0116   0.0090   0.0126   0.0072   0.0054   0.0100   0.00    1.0
2024/05/18 02:42:00.000   3655333.8592   1403900.7389   5018038.0099   2   9   0.0116   0.0091   0.0125   0.0071   0.0054   0.0100   0.00    1.0
2024/05/18 02:42:30.000   3655333.8578   1403900.7376   5018038.0061   2   9   0.0116   0.0091   0.0125   0.0071   0.0054   0.0099   0.00    1.0
2024/05/18 02:43:00.000   3655333.8541   1403900.7351   5018038.0023   2   9   0.0115   0.0090   0.0125   0.0073   0.0054   0.0099   0.00    1.0
2024/05/18 02:43:30.000   3655333.8495   1403900.7337   5018037.9922   2   9   0.0116   0.0091   0.0124   0.0072   0.0052   0.0099   0.00    1.0
2024/05/18 02:44:00.000   3655333.8485   1403900.7365   5018037.9976   2   9   0.0115   0.0090   0.0123   0.0072   0.0054   0.0098   0.00    1.0
2024/05/18 02:44:30.000   3655333.8449   1403900.7398   5018037.9957   2   9   0.0114   0.0091   0.0123   0.0072   0.0054   0.0098   0.00    1.0
2024/05/18 02:45:00.000   3655333.8484   1403900.7386   5018038.0078   2   9   0.0114   0.0092   0.0122   0.0072   0.0054   0.0097   0.00    1.0
2024/05/18 02:45:30.000   3655333.8397   1403900.7365   5018037.9986   2   9   0.0115   0.0091   0.0123   0.0072   0.0052   0.0096   0.00    1.0
2024/05/18 02:46:00.000   3655333.8421   1403900.7425   5018038.0017   2   9   0.0114   0.0091   0.0122   0.0073   0.0052   0.0096   0.00    1.0
2024/05/18 02:46:30.000   3655333.8358   1403900.7438   5018038.0025   2   9   0.0114   0.0092   0.0121   0.0072   0.0053   0.0095   0.00    1.0
2024/05/18 02:47:00.000   3655333.8353   1403900.7451   5018038.0086   2   9   0.0114   0.0091   0.0121   0.0073   0.0052   0.0095   0.00    1.0
2024/05/18 02:47:30.000   3655333.8216   1403900.7430   5018038.0030   2   9   0.0114   0.0092   0.0121   0.0073   0.0050   0.0094   0.00    1.1
2024/05/18 02:48:00.000   3655333.8179   1403900.7477   5018037.9966   2   9   0.0114   0.0090   0.0120   0.0074   0.0052   0.0094   0.00    1.1
2024/05/18 02:48:30.000   3655333.8142   1403900.7484   5018037.9950   2   9   0.0114   0.0092   0.0120   0.0073   0.0049   0.0094   0.00    1.1
2024/05/18 02:49:00.000   3655333.8495   1403900.7623   5018038.0294   2   8   0.0127   0.0093   0.0128   0.0077   0.0053   0.0106   0.00    1.3
2024/05/18 02:49:30.000   3655333.8401   1403900.7543   5018038.0249   2   8   0.0126   0.0092   0.0127   0.0078   0.0054   0.0105   0.00    1.3
2024/05/18 02:50:00.000   3655333.8529   1403900.7595   5018038.0317   2   8   0.0126   0.0093   0.0127   0.0077   0.0052   0.0104   0.00    1.3
2024/05/18 02:50:30.000   3655333.8536   1403900.7586   5018038.0359   2   8   0.0126   0.0093   0.0127   0.0077   0.0053   0.0103   0.00    1.3
2024/05/18 02:51:00.000   3655333.8649   1403900.7668   5018038.0468   2   8   0.0125   0.0094   0.0126   0.0076   0.0053   0.0103   0.00    1.3
2024/05/18 02:51:30.000   3655333.8621   1403900.7608   5018038.0361   2   7   0.0167   0.0130   0.0139   0.0126   0.0090   0.0131   0.00    1.5
2024/05/18 02:52:00.000   3655333.8501   1403900.7625   5018038.0340   2   7   0.0166   0.0130   0.0138   0.0127   0.0089   0.0130   0.00    1.5
2024/05/18 02:52:30.000   3655333.8345   1403900.7579   5018038.0246   2   7   0.0165   0.0130   0.0138   0.0126   0.0088   0.0128   0.00    1.6
2024/05/18 02:53:00.000   3655333.8239   1403900.7591   5018038.0171   2   7   0.0165   0.0130   0.0137   0.0126   0.0087   0.0127   0.00    1.6
2024/05/18 02:53:30.000   3655333.8307   1403900.7638   5018038.0187   2   7   0.0164   0.0131   0.0136   0.0126   0.0086   0.0126   0.00    1.6
2024/05/18 02:54:00.000   3655333.8317   1403900.7636   5018038.0218   2   7   0.0163   0.0130   0.0135   0.0126   0.0085   0.0125   0.00    1.6
2024/05/18 02:54:30.000   3655333.8477   1403900.7686   5018038.0345   2   7   0.0162   0.0131   0.0135   0.0126   0.0085   0.0124   0.00    1.6
2024/05/18 02:55:00.000   3655333.8416   1403900.7680   5018038.0331   2   7   0.0162   0.0132   0.0134   0.0125   0.0083   0.0123   0.00    1.6
2024/05/18 02:55:30.000   3655333.8501   1403900.7717   5018038.0408   2   7   0.0161   0.0131   0.0133   0.0125   0.0083   0.0122   0.00    1.6
2024/05/18 02:56:00.000   3655333.8535   1403900.7746   5018038.0474   2   7   0.0160   0.0132   0.0133   0.0125   0.0082   0.0121   0.00    1.6
2024/05/18 02:56:30.000   3655333.8551   1403900.7753   5018038.0503   2   7   0.0160   0.0132   0.0132   0.0125   0.0081   0.0120   0.00    1.6
2024/05/18 02:57:00.000   3655333.8567   1403900.7720   5018038.0419   2   7   0.0159   0.0133   0.0132   0.0124   0.0080   0.0119   0.00    1.6
2024/05/18 02:57:30.000   3655333.8471   1403900.7709   5018038.0349   2   7   0.0158   0.0132   0.0131   0.0125   0.0080   0.0118   0.00    1.6
2024/05/18 02:58:00.000   3655333.8501   1403900.7731   5018038.0360   2   7   0.0158   0.0133   0.0131   0.0124   0.0079   0.0116   0.00    1.6
2024/05/18 02:58:30.000   3655333.8332   1403900.7593   5018038.0270   2   7   0.0157   0.0133   0.0130   0.0125   0.0078   0.0115   0.00    1.6
2024/05/18 02:59:00.000   3655333.8313   1403900.7550   5018038.0369   2   7   0.0157   0.0133   0.0129   0.0124   0.0077   0.0114   0.00    1.7
2024/05/18 02:59:30.000   3655333.8287   1403900.7518   5018038.0298   2   7   0.0156   0.0134   0.0129   0.0124   0.0076   0.0113   0.00    1.7
2024/05/18 03:00:00.000   3655333.8242   1403900.7539   5018038.0183   2   7   0.0156   0.0134   0.0128   0.0124   0.0076   0.0112   0.00    1.7
2024/05/18 03:00:30.000   3655333.8284   1403900.7560   5018038.0172   2   7   0.0154   0.0134   0.0128   0.0124   0.0074   0.0111   0.00    1.7
2024/05/18 03:01:00.000   3655333.8177   1403900.7487   5018038.0172   2   7   0.0154   0.0135   0.0128   0.0123   0.0073   0.0110   0.00    1.7
2024/05/18 03:01:30.000   3655333.8422   1403900.7616   5018038.0246   2   7   0.0154   0.0135   0.0128   0.0124   0.0072   0.0109   0.00    1.7
2024/05/18 03:02:00.000   3655333.8525   1403900.7670   5018038.0281   2   7   0.0153   0.0135   0.0128   0.0124   0.0071   0.0108   0.00    1.7
2024/05/18 03:02:30.000   3655333.8628   1403900.7650   5018038.0339   2   6   0.0153   0.0139   0.0143   0.0125   0.0055   0.0104   0.00    1.5
2024/05/18 03:03:00.000   3655333.8673   1403900.7547   5018038.0428   2   6   0.0153   0.0139   0.0142   0.0125   0.0053   0.0103   0.00    1.5
2024/05/18 03:03:30.000   3655333.8681   1403900.7536   5018038.0480   2   6   0.0153   0.0140   0.0142   0.0124   0.0052   0.0103   0.00    1.4
2024/05/18 03:04:00.000   3655333.8675   1403900.7479   5018038.0537   2   6   0.0152   0.0140   0.0142   0.0125   0.0051   0.0101   0.00    1.4
2024/05/18 03:04:30.000   3655333.8641   1403900.7421   5018038.0534   2   6   0.0151   0.0140   0.0142   0.0125   0.0049   0.0100   0.00    1.4
2024/05/18 03:05:00.000   3655333.8661   1403900.7401   5018038.0514   2   6   0.0150   0.0140   0.0142   0.0125   0.0048   0.0099   0.00    1.4
2024/05/18 03:05:30.000   3655333.8841   1403900.7508   5018038.0639   2   6   0.0150   0.0141   0.0141   0.0125   0.0047   0.0098   0.00    1.4
2024/05/18 03:06:00.000   3655333.8926   1403900.7485   5018038.0707   2   6   0.0150   0.0141   0.0141   0.0125   0.0045   0.0097   0.00    1.4
2024/05/18 03:06:30.000   3655333.8889   1403900.7412   5018038.0761   2   6   0.0150   0.0142   0.0141   0.0124   0.0044   0.0096   0.00    1.3
2024/05/18 03:07:00.000   3655333.8930   1403900.7444   5018038.0848   2   6   0.0149   0.0142   0.0141   0.0125   0.0042   0.0095   0.00    1.3
2024/05/18 03:07:30.000   3655333.9034   1403900.7508   5018038.0867   2   6   0.0148   0.0142   0.0141   0.0125   0.0039   0.0094   0.00    1.3
2024/05/18 03:08:00.000   3655333.9165   1403900.7554   5018038.0948   2   6   0.0148   0.0142   0.0141   0.0125   0.0038   0.0093   0.00    1.3
2024/05/18 03:08:30.000   3655333.9450   1403900.7736   5018038.1036   2   6   0.0147   0.0143   0.0141   0.0125   0.0036   0.0092   0.00    1.3
2024/05/18 03:09:00.000   3655333.9560   1403900.7837   5018038.0968   2   6   0.0147   0.0143   0.0141   0.0125   0.0034   0.0091   0.00    1.3
2024/05/18 03:09:30.000   3655333.9386   1403900.7764   5018038.0863   2   6   0.0146   0.0144   0.0141   0.0125   0.0034   0.0090   0.00    1.3
2024/05/18 03:10:00.000   3655333.9352   1403900.7761   5018038.0751   2   6   0.0147   0.0144   0.0141   0.0124   0.0029   0.0089   0.00    1.3
2024/05/18 03:10:30.000   3655333.9365   1403900.7815   5018038.0707   2   6   0.0146   0.0144   0.0141   0.0125   0.0029   0.0088   0.00    1.3
2024/05/18 03:11:00.000   3655333.9463   1403900.7916   5018038.0721   2   6   0.0146   0.0144   0.0141   0.0125   0.0027   0.0087   0.00    1.3
2024/05/18 03:11:30.000   3655333.9464   1403900.7973   5018038.0682   2   6   0.0146   0.0144   0.0141   0.0125   0.0022   0.0086   0.00    1.3
2024/05/18 03:12:00.000   3655333.9352   1403900.7954   5018038.0670   2   6   0.0145   0.0145   0.0141   0.0125   0.0021   0.0085   0.00    1.3
2024/05/18 03:12:30.000   3655333.9265   1403900.7932   5018038.0638   2   6   0.0144   0.0145   0.0141   0.0125   0.0016   0.0084   0.00    1.3
2024/05/18 03:13:00.000   3655333.9173   1403900.7985   5018038.0494   2   6   0.0144   0.0145   0.0142   0.0125   0.0011   0.0084   0.00    1.3
2024/05/18 03:13:30.000   3655333.9078   1403900.8061   5018038.0429   2   6   0.0144   0.0146   0.0142   0.0124   0.0005   0.0083   0.00    1.4
2024/05/18 03:14:00.000   3655333.8954   1403900.8034   5018038.0359   2   6   0.0144   0.0146   0.0142   0.0125  -0.0014   0.0081   0.00    1.4
2024/05/18 03:14:30.000   3655333.8782   1403900.8000   5018038.0197   2   6   0.0143   0.0146   0.0142   0.0125  -0.0015   0.0081   0.00    1.4
2024/05/18 03:15:00.000   3655333.8754   1403900.7931   5018038.0282   2   6   0.0142   0.0146   0.0143   0.0125  -0.0019   0.0080   0.00    1.5
2024/05/18 03:15:30.000   3655333.8626   1403900.7856   5018038.0293   2   6   0.0143   0.0147   0.0143   0.0124  -0.0024   0.0079   0.00    1.5
2024/05/18 03:16:00.000   3655333.8543   1403900.7802   5018038.0236   2   6   0.0141   0.0147   0.0143   0.0125  -0.0025   0.0078   0.00    1.6
2024/05/18 03:16:30.000   3655333.8590   1403900.7849   5018038.0245   2   6   0.0141   0.0147   0.0144   0.0124  -0.0027   0.0077   0.00    1.7
2024/05/18 03:17:00.000   3655333.8865   1403900.8014   5018038.0373   2   7   0.0141   0.0147   0.0144   0.0124  -0.0030   0.0076   0.00    1.0
2024/05/18 03:17:30.000   3655333.9069   1403900.8085   5018038.0509   2   7   0.0123   0.0126   0.0144   0.0102  -0.0031   0.0075   0.00    1.0
2024/05/18 03:18:00.000   3655333.9165   1403900.8058   5018038.0616   2   8   0.0116   0.0119   0.0145   0.0093  -0.0032   0.0074   0.00    1.0
2024/05/18 03:18:30.000   3655333.9207   1403900.8032   5018038.0669   2   8   0.0111   0.0112   0.0142   0.0085  -0.0043   0.0071   0.00    1.0
2024/05/18 03:19:00.000   3655333.9163   1403900.7978   5018038.0748   2   8   0.0109   0.0109   0.0141   0.0081  -0.0046   0.0069   0.00    1.0
2024/05/18 03:19:30.000   3655333.9260   1403900.8046   5018038.0732   2   8   0.0106   0.0106   0.0141   0.0079  -0.0047   0.0068   0.00    1.1
2024/05/18 03:20:00.000   3655333.9277   1403900.8083   5018038.0688   2   8   0.0105   0.0105   0.0141   0.0076  -0.0049   0.0067   0.00    1.1
2024/05/18 03:20:30.000   3655333.9264   1403900.8024   5018038.0706   2   8   0.0105   0.0103   0.0141   0.0074  -0.0049   0.0067   0.00    1.1
2024/05/18 03:21:00.000   3655333.9198   1403900.8037   5018038.0663   2   8   0.0104   0.0102   0.0141   0.0073  -0.0050   0.0066   0.00    1.1
2024/05/18 03:21:30.000   3655333.9079   1403900.8044   5018038.0535   2   8   0.0102   0.0101   0.0141   0.0073  -0.0051   0.0066   0.00    1.1
2024/05/18 03:22:00.000   3655333.8897   1403900.7995   5018038.0465   2   8   0.0101   0.0101   0.0142   0.0071  -0.0050   0.0066   0.00    1.1
